{"data": [
    {"lat":"80.2064955669539","lan":"13.0177275071579","Zone":"13","address":"Reddy 2nd Street, Ambal Nagar. Ekattuthangal Chennai-32","name":"P. Suganthi","mobile":"9840648404","desi":"","ward":"168"},
    {"lat":"80.2250999994034","lan":"13.026700001352","Zone":"13","address":"Railway Border Road, Saidapet Chennai-15","name":"Shoba","mobile":"8925110210","desi":"","ward":"169"},
    {"lat":"80.2587071571183","lan":"13.0236788916107","Zone":"13","address":"Kamaraj Road, R.A. Puram. Chennai-28","name":"S. Nithiya","mobile":"8939026827","desi":"","ward":"171"},
    {"lat":"80.2530554578743","lan":"13.0218228498531","Zone":"13","address":"Greenways Road, Kumaraswamy Raja Road, Chennai - 28","name":"S. Sathiya Rani","mobile":"8939300861","desi":"","ward":"171"},
    {"lat":"80.2648596920737","lan":"13.0012306049541","Zone":"13","address":"Besant Nagar, 1st Shadow Road, Chennai-90","name":"R. Chandra","mobile":"9841349791","desi":"","ward":"174"},
    {"lat":"80.2633193545808","lan":"12.9966832039962","Zone":"13","address":"MGR colony, Besant Nagar, Chennai - 90","name":"K. Lakshmi","mobile":"8939019474","desi":"","ward":"174"},
    {"lat":"80.254199740686","lan":"12.9900279798745","Zone":"13","address":"Thiruvenkadam Street, Adyar, Chennai-20","name":"P. Chithirai Selvi","mobile":"7639390369","desi":"","ward":"173"},
    {"lat":"80.2541987039906","lan":"12.9900302606207","Zone":"13","address":"Indira Nagar, 29th Street, Adyar, Chennai-20","name":"Sathiya","mobile":"9710108151","desi":"","ward":"173"},
    {"lat":"80.2547850287413","lan":"12.9900934709157","Zone":"13","address":"Annai Indira Nagar, Velachery - Tambaram Road (under flyover), Chennai","name":"I. Rebeaka","mobile":"9042952757","desi":"","ward":"173"},
    {"lat":"80.2622658416649","lan":"12.9849047901474","Zone":"13","address":"Kuppam, Beach Road, Thiruvanyur, Chennai - 41","name":"S. Padmapriya","mobile":"9600149829","desi":"","ward":"179"},
    {"lat":"80.2602131722518","lan":"12.9888941903201","Zone":"13","address":"Lakshmipuram, Valmiki Street, Thiruvanmiyur, Chennai - 41","name":"A. Chitra","mobile":"8148878113","desi":"","ward":"179"},
    {"lat":"80.2370106029051","lan":"12.9819439303967","Zone":"8","address":"Tamilar Nagar Anna Nagar East Chennai 600040","name":"Usha","mobile":"9710053048","desi":"","Ward":"178"},
    {"lat":"80.2356815955422","lan":"12.9805746549176","Zone":"13","address":"Godavari Road, Bharathi Nagar, Tharamani, Velachery, Chennai","name":"M. Tamil Selvi","mobile":"7338787001","desi":"","ward":"178"},
    {"lat":"80.2314793052867","lan":"12.9786769319571","Zone":"14","address":"1st Main Road, Burma Colony, OMR Road, tolgate, Chennai-41.","name":"S.Kamatchi","mobile":"8608919686","desi":"","ward":"178"},
    {"lat":"80.2120739627549","lan":"13.0022002707765","Zone":"13","address":"Five Burlong Road,Guindy, Chennai-32","name":"W. Glowri","mobile":"9941698723","desi":"","ward":"172"},
    {"lat":"80.2405453688307","lan":"12.9855120696465","Zone":"13","address":"Taramani Bus Stand, Tharamani, Chennai-113","name":"R.Buvaneswari","mobile":"8681912645","desi":"","ward":"172"},
    {"lat":"80.2181592543548","lan":"12.9689382662834","Zone":"13","address":"Velachery Main Road, Velachery, Chennai-42","name":"D.Renuka","mobile":"9094593141","desi":"","ward":"177"},
    {"lat":"80.2230363237744","lan":"12.9856407520612","Zone":"13","address":"New colony, Velachery, Chennai-42","name":"M. Sugumari","mobile":"9677068643","desi":"","ward":"177"},
    {"lat":"80.227535679838","lan":"12.9853046994311","Zone":"13","address":"Thiruveedi Amman Kovil Street, Thiruvanmiyur, Chennai - 41","name":"D. Revathi","mobile":"6369671570","desi":"","ward":"177"},
    {"lat":"80.2056929553919","lan":"12.9916037723837","Zone":"12","address":"Thillai Ganga Nagar, 1st Main Road, Adambakkam, Chennai-61","name":"C.Saraswathi","mobile":"9094384600","desi":"","ward":"175"},
    {"lat":"80.2538190213063","lan":"12.9769940383305","Zone":"13","address":"Avvai Nagar, Thiruvanmiyur, Chennai-41","name":"Sivasankari","mobile":"9884041520","desi":"","ward":"180"},
    {"lat":"80.2466656722889","lan":"12.9443734459705","Zone":"15","address":"Pandian Nagar, Thoraipakkam, Chennai - 97","name":"B. Merry Pushpam","mobile":"9789800140","desi":"","ward":"193"},
    {"lat":"80.2333070303713","lan":"12.9167983834058","Zone":"15","address":"Kaliamman Kovil Street, Karapakkam, Chennai - 97","name":"C. Rani","mobile":"9841924664","desi":"","ward":"198"},
    {"lat":"80.2303351695773","lan":"12.8990065536318","Zone":"15","address":"Ezhil Nagar Main Road, Ezhil Nagar, Thoraipakkam, Chennai - 97","name":"M.Elavarasi","mobile":"9360557966","desi":"","ward":"199"},
    {"lat":"80.2296282591967","lan":"12.8925500127112","Zone":"15","address":"Nedunchezhiyan Road, shozhinganallur, Chennai-119","name":"D. Soundari","mobile":"9940253896","desi":"","ward":"199"},
    {"lat":"80.2550883803875","lan":"12.9498312136511","Zone":"15","address":"ECR Main Road, Kabaliswarar Nagar , Neelangarai, Chennai-115","name":"V. Devasena","mobile":"9791175733","desi":"","ward":"192"},
    {"lat":"80.2168032962915","lan":"12.8603796517599","Zone":"15","address":"19th Cross Street, Tsunami Nagar, Chemmancheri, Chennai - 119","name":"S. Regina","mobile":"7904392026","desi":"","ward":"200"},
    {"lat":"80.2168032962915","lan":"12.8603796517599","Zone":"15","address":"66th Cross Street, Tsunami Nagar, Chemmancheri, Chennai - 119","name":"R.Mahalakshmi","mobile":"8124219782","desi":"","ward":"200"},
    {"lat":"80.2273646064229","lan":"12.8598785015568","Zone":"15","address":"Perumal Kovil Street, Chemmancheri, Chennai - 119","name":"Bhuvaneswari","mobile":"8939703649","desi":"","ward":"200"},
    {"lat":"80.2516999988322","lan":"12.920299999218","Zone":"15","address":"No. 2/101, V.O.C. Street, Enjambakkam, Chennai - 115","name":"P.Theivakanni","mobile":"9444248433","desi":"","ward":"194"},
    {"lat":"80.2474906118622","lan":"12.9406424801361","Zone":"15","address":"Mahatma Gandhi Nagar, 1st Main Road, Thoraipakkam, Chennai - 97","name":"Meenatchi","mobile":"8939267066","desi":"","ward":"194"},
    {"lat":"80.2452226076546","lan":"12.8935478414875","Zone":"15","address":"Panchayat Union Primary School 1st Street, Kudimiandi Thoppu, Panayur, Chennai- 119","name":"S. Sudha","mobile":"8939300793","desi":"","ward":"197"},
    {"lat":"80.2453649523814","lan":"12.8877941580145","Zone":"15","address":"V.V.V. Road, Nainarkuppam, Uttandi, Chennai. 119.","name":"E. Sakila","mobile":"6369125006","desi":"","ward":"197"},
    {"lat":"80.1907878802442","lan":"12.9758200841918","Zone":"14","address":"Lakshmi Nagar, 10th Street, Ullagaram, Chennai-91","name":"Manimegali","mobile":"8056241065","desi":"","ward":"185"},
    {"lat":"80.1953999993527","lan":"12.9789999989303","Zone":"14","address":"Jegathambal Colony, Siniwasa Street, Ullagaram, Chennai- 91","name":"Pushpa","mobile":"8939612991","desi":"","ward":"185"},
    {"lat":"80.2038418600293","lan":"12.9763993351804","Zone":"12","address":"Balaji Nagar Main Road, Adambakkam, Chennai - 88","name":"Uma Mageshwari","mobile":"8072455267","desi":"","ward":"186"},
    {"lat":"80.2033988911058","lan":"12.9765966855591","Zone":"14","address":"Puluthivakkam Bus Stand, Puluthivakkam, Chennai-91","name":"R.Kanchana","mobile":"9994012550","desi":"","ward":"186"},
    {"lat":"80.1977497972842","lan":"12.9700895455301","Zone":"14","address":"Kalaimagal Street, Puluthivakkam, Chennai-91.","name":"G. Bhagyalakshmi","mobile":"9677267020","desi":"","ward":"186"},
    {"lat":"80.2422999998405","lan":"12.9538999978347","Zone":"14","address":"Corporation Road, Perungudi, Chennai-41","name":"Revathy","mobile":"8015231195","desi":"","ward":"184"},
    {"lat":"80.2397006395672","lan":"12.960107707286","Zone":"14","address":"Panchayat Office Road, Perungudi, Chennai-41","name":"B.Nirmala","mobile":"9962930744","desi":"","ward":"184"},
    {"lat":"80.256441953167","lan":"12.9609956040135","Zone":"14","address":"E.C.R. Road, Palavakkam, Chennai-41","name":"M.Vijayalakshmi","mobile":"7558186481","desi":"","ward":"183"},
    {"lat":"80.2063000013519","lan":"12.941100000821","Zone":"14","address":"Velachery Main Road, Narayanapuram, Pallikaranai, Chennai-100","name":"Latha","mobile":"9551443994","desi":"","ward":"189"},
    {"lat":"80.2028999994043","lan":"12.9310999994947","Zone":"14","address":"Velachery Tambaram Main Road, Pallikaranai, Chennai-100","name":"Kalavathi","mobile":"9710348839","desi":"","ward":"190"},
    {"lat":"80.2049970177476","lan":"12.9326609964582","Zone":"14","address":"Thulukkanathamman Kovil Street, Pallikaranai, Chennai-100.","name":"Devi","mobile":"9840246872","desi":"","ward":"190"},
    {"lat":"80.2023606044221","lan":"12.9210040842682","Zone":"14","address":"Rice Mill Road, Jalladayanpet, Chennai-100","name":"Selvi","mobile":"9677295270","desi":"","ward":"191"},
    {"lat":"80.1966888491749","lan":"12.9111616034702","Zone":"14","address":"Ex-Serviceman colony 2nd Street Jalladayanpet Perumbakkam Road Near Saibaba Temple, Chennai-100.","name":"S.Devi","mobile":"8939730755","desi":"","ward":"191"},
    {"lat":"80.2502179215417","lan":"12.9804117108076","Zone":"14","address":"Velachery Tharamani Road, SRP Tools, Chennai-41","name":"Ranjani","mobile":"7708070001","desi":"","ward":"182"},
    {"lat":"80.2420841000311","lan":"12.9678806947048","Zone":"14","address":"Anna Highroad, Kandanchavady, Chennai-41","name":"R.Sagayam","mobile":"9962432939","desi":"","ward":"182"},
    {"lat":"80.2464017956203","lan":"12.9645496388302","Zone":"14","address":"MGR Road, Kandanchavady, Perungudi, Chennai-41","name":"S.Ramya","mobile":"9176048449","desi":"","ward":"182"},
    {"lat":"80.2756795209127","lan":"13.026928516764","Zone":"9","address":"No.4, Santom High Road, Mylapore, Chennai-4","name":"Sangeetha","mobile":"9003116368","desi":"","ward":"126"},
    {"lat":"80.2790973184566","lan":"13.0391059297318","Zone":"9","address":"No.7, Kamaraj Road, Near Lighthouse, Mylapore, Chennai-04","name":"Kuppulakshmi","mobile":"9840821456","desi":"","ward":"125"},
    {"lat":"80.2703574371112","lan":"13.0535120161024","Zone":"9","address":"No.1, Begum Sahib 5th Street, Royapettah, Chennai-14","name":"Indumadi","mobile":"9710565457","desi":"","ward":"115"},
    {"lat":"80.2640817229549","lan":"13.0540119894526","Zone":"9","address":"Royapettah Highway, Royapettah, Chennai-14","name":"Jeyalakshmi","mobile":"8838017641","desi":"","ward":"115"},
    {"lat":"80.2718685847919","lan":"13.0572008718426","Zone":"9","address":"No.10, Vallabha Akkarakaram Street, Triplicane, Chennai-5","name":"Mslarkodi","mobile":"9962897025","desi":"","ward":"115"},
    {"lat":"80.2655023882734","lan":"13.0580107766279","Zone":"9","address":"No.1, West Cot Road, Triplicane, Chennai-5","name":"Hemalatha","mobile":"9566136447","desi":"","ward":"115"},
    {"lat":"80.2726605776128","lan":"13.0575221854378","Zone":"9","address":"No.2 / 84, Surappan Street, Triplicane,  Chennai-5","name":"Indurani","mobile":"9841337890","desi":"","ward":"115"},
    {"lat":"80.2792540336586","lan":"13.0568204479749","Zone":"9","address":"No.59 / 130, Venkatarangam Street, Triplicane,  Chennai-5","name":"Chithtra","mobile":"8939053473","desi":"","ward":"116"},
    {"lat":"80.2786137617539","lan":"13.0516721913554","Zone":"9","address":"No.13, Venkatrangan Street, Triplicane,  Chennai-5","name":"Parimala","mobile":"9841129485","desi":"","ward":"116"},
    {"lat":"80.2780858615763","lan":"13.0592023081292","Zone":"9","address":"Government Kasturbai Gandhi General Hospital, Triplicane, Chennai-5","name":"Manimegali","mobile":"9840135573","desi":"","ward":"114"},
    {"lat":"80.275988077813","lan":"13.0637774509481","Zone":"9","address":"No.52, Arunachalam Street, Triplicane, Chennai-5","name":"Meena","mobile":"9080907546","desi":"","ward":"114"},
    {"lat":"80.2640506726113","lan":"13.0325838132492","Zone":"9","address":"No.90/70, Shardapuram, Sai Baba Temple, Mylapore, Chennai-4","name":"Uma Parameshwari","mobile":"9962885556","desi":"","ward":"124"},
    {"lat":"80.2668715978269","lan":"13.0294463584402","Zone":"9","address":"No.1, Market Road, Mandaveli, Chennai-28","name":"Shyamala Devi","mobile":"9962156886","desi":"","ward":"124"},
    {"lat":"80.250341849052","lan":"13.036393893472","Zone":"9","address":"No.33, K.B. Dasan Road, Teynampet, Chennai-18","name":"Prema","mobile":"7200912763","desi":"","ward":"123"},
    {"lat":"80.2572379448262","lan":"13.0354295827339","Zone":"9","address":"No.29, CP Ramasamy Road, Alwarpet, Chennai-18","name":"Sundari","mobile":"9941558258","desi":"","ward":"123"},
    {"lat":"80.2571000013991","lan":"13.0346000010067","Zone":"9","address":"R.A. Puram, 3rd Main Road, C.P. Ramasamy Road, Alwarpet, Chennai - 18","name":"Kalaivani","mobile":"9941087563","desi":"","ward":"123"},
    {"lat":"80.2305001015215","lan":"13.0629612125175","Zone":"8","address":"SBI Staff colony 6th street, Arumbakkam, chennai","name":"Devaki","mobile":"9952957855","desi":"","Ward":"112"},
    {"lat":"80.224304046127","lan":"13.0556918395923","Zone":"9","address":"Puliyur, 1st Main Road, Trust Puram, Kodambakkam, Chennai-24","name":"Sundrakodi","mobile":"7010963337","desi":"","ward":"112"},
    {"lat":"80.2303699790376","lan":"13.0620284034811","Zone":"9","address":"No.17, Choolaimedu Main Road, Choolaimedu, Chennai-94","name":"Saritha Meri","mobile":"8939836508","desi":"","ward":"112"},
    {"lat":"80.2435127338052","lan":"13.0276730685295","Zone":"9","address":"Nandanam 10th Street, Nandanam, Chennai-35","name":"R.Kavitha","mobile":"9840325855","desi":"","ward":"122"},
    {"lat":"80.2707000000526","lan":"13.0474999992546","Zone":"9","address":"Lloyds Road, Royapettah, C-14","name":"Elvin Shanthi","mobile":"8056060081","desi":"","ward":"121"},
    {"lat":"80.2662008695829","lan":"13.0396499261181","Zone":"9","address":"No.42, Prof. Sanjeevi Street, Near Ambedkar Bridge, Mylapore Chennai-4.","name":"Loganayagi","mobile":"6382406418","desi":"","ward":"121"},
    {"lat":"80.2734000011824","lan":"13.0505999993976","Zone":"9","address":"No.4, Muthiah Street,Royapettah, Chennai-14","name":"S.Yamuna","mobile":"9042810436","desi":"","ward":"120"},
    {"lat":"80.2767999991996","lan":"13.0507999989395","Zone":"9","address":"No.27 / 47, Gajapathi Street, Krishnampet, Triplicane, Chennai-5","name":"Mahalakshmi","mobile":"6379404677","desi":"","ward":"120"},
    {"lat":"80.2693840069222","lan":"13.0470494101665","Zone":"9","address":"Royapettah Government General Hospital, Royapettah,, Chennai-14","name":"Bhavani","mobile":"7550149691","desi":"","ward":"119"},
    {"lat":"80.2641461240577","lan":"13.0398388361897","Zone":"9","address":"No.54 / 4, Oliver Road, Mylapore, Chennai-4","name":"Karpagam","mobile":"8248237493","desi":"","ward":"119"},
    {"lat":"80.2591120374765","lan":"13.0525230609895","Zone":"9","address":"No.75, Srinivasa Perumal Sannathi, 2nd Street, Gopalapuram, Chennai-86","name":"Devaki","mobile":"9092759773","desi":"","ward":"118"},
    {"lat":"80.2504233074045","lan":"13.048168837939","Zone":"9","address":"Muthaiah Street teynampet chennai - 18","name":"Revathi","mobile":"9790935996","desi":"","ward":"118"},
    {"lat":"80.2499344460583","lan":"13.039493682865","Zone":"9","address":"Mariappan Street, Teynampet, Chennai-18","name":"Dhanaselvi","mobile":"9094114536","desi":"","ward":"118"},
    {"lat":"80.2452889479457","lan":"13.0732819317611","Zone":"8","address":"24,Mangalapuram 7th Street,Chetpet,Chennai-31","name":"Sundari","mobile":"73959 62053","Ward":"108"},
    {"lat":"80.2309969202631","lan":"13.0723948016817","Zone":"8","address":"Venkatachalapathy Street, Shenoy Nagar, Chennai - 30","name":"Komala","mobile":"99626 48987","Ward":"108"},
    {"lat":"80.2228271758224","lan":"13.0672835847053","Zone":"8","address":"MMDA Colony Bus Depot, Arumbakkam, Chennai - 106","name":"Anusuya Devi","mobile":"90941 79828","Ward":"107"},
    {"lat":"80.2204868220596","lan":"13.0711430200728","Zone":"8","address":"Collector Colony Main Road, Aminjikarai, Chennai - 29","name":"Thilaga","mobile":"80562 33483","Ward":"107"},
    {"lat":"80.2198873490707","lan":"13.068431619544","Zone":"8","address":"Collector Colony 6th Cross Street,  Aminjikarai, Chennai - 29","name":"Thilaga","mobile":"80562 33483","Ward":"107"},
    {"lat":"80.2143006106432","lan":"13.0647909364866","Zone":"8","address":"Muthumariamman Temple Street, Arumbakkam, Chennai - 106","name":"Rekha","mobile":"96004 17668","Ward":"105"},
    {"lat":"80.1981415083282","lan":"13.0952571916486","Zone":"7","address":"Elango Nagar, Bus Stand, Anna Nagar West Extension, Chennai-101","name":"Raji","mobile":"7603992716","desi":"","ward":"104"},
    {"lat":"80.251661401091","lan":"13.0875261544829","Zone":"8","address":"32,Sundaram Lane,Purasaiwakkam","name":"Vijaya","mobile":"91764 64046","Ward":"99"},
    {"lat":"80.2559676895211","lan":"13.0836934012109","Zone":"8","address":"No.15, Lettangs Road, Purasaiwakkam,  Chennai - 84","name":"Dhanalakshmi","mobile":"91764 64046","Ward":"99"},
    {"lat":"80.2429278741269","lan":"13.0765873483046","Zone":"8","address":"Kilpauk Government Hospital, Kilpauk , Chennai - 10","name":"Padma","mobile":"80562 86725","Ward":"99"},
    {"lat":"80.2370044352799","lan":"13.0858649459873","Zone":"8","address":"Aspirin Garden, Lower, Chennai - 10","name":"Thulasi","mobile":"98417 95628","Ward":"98"},
    {"lat":"80.2403892667652","lan":"13.0927322492537","Zone":"8","address":"Ayanavaram Road Junction, Medavakkam Tank Road, Lower, Chennai - 10","name":"Priyanka","mobile":"98418 21105","Ward":"98"},
    {"lat":"80.2321618085525","lan":"13.0979873351999","Zone":"8","address":"KK Nagar. Ayanavaram, Chennai - 23","name":"Yuvarani","mobile":"96001 29509","Ward":"98"},
    {"lat":"80.237625324853","lan":"13.0804108988026","Zone":"8","address":"Taylors Road, Kilpauk, Chennai - 10","name":"Vendamathi","mobile":"98840 63816","Ward":"100"},
    {"lat":"80.232491009166","lan":"13.0819845137742","Zone":"8","address":"Halls Road, Kilpauk, Chennai - 10","name":"Manju","mobile":"97101 94768","Ward":"100"},
    {"lat":"80.2229560964162","lan":"13.0964682271479","Zone":"8","address":"Adi Andhra Nagar, Ayanavaram, Chennai - 23","name":"Bhakkiyalakshmi","mobile":"72006 73965","Ward":"97"},
    {"lat":"80.2230334865282","lan":"13.0968337452335","Zone":"8","address":"O Block. MMDA Colony, Arumbakkam, Chennai - 106","name":"Anusuya Devi","mobile":"90941 79828","Ward":"97"},
    {"lat":"80.2282803087558","lan":"13.1000964912866","Zone":"8","address":"Konoor High Road, Ayanavaram, Chennai - 23","name":"Rahamath","mobile":"81245 36646","Ward":"96"},
    {"lat":"80.2336907167093","lan":"13.0986528154418","Zone":"8","address":"Gopal Pillai Nagar, Ayanavaram, Chennai - 23","name":"Latha","mobile":"86104 24874","Ward":"96"},
    {"lat":"80.2090971591003","lan":"13.1029186240069","Zone":"8","address":"Thanthoniyamman Temple Street, Villivakkam, Chennai - 600049","name":"Amali","mobile":"80720 69935","Ward":"95"},
    {"lat":"80.2017555492251","lan":"13.1000654563069","Zone":"8","address":"Venugopal street,Thirumangalam road, villivakkam, Ch 49","name":"Abirami","mobile":"97102 46638","Ward":"95"},
    {"lat":"80.2101248475726","lan":"13.0849729313327","Zone":"8","address":"VS Puram, Anna Nagar East, Chennai - 600040","name":"Shanthi","mobile":"97911 32488","Ward":"103"},
    {"lat":"80.2100674848085","lan":"13.0859463185031","Zone":"8","address":"No.125, K Block,Unit office at 2nd main road,(near boganvillapark),Anna Nagar East, Ch-102","name":"Indira","mobile":"98414 74630","Ward":"103"},
    {"lat":"80.2101977635941","lan":"13.0861493743613","Zone":"8","address":"Thiru, VK Street, Anna Nagar East, Chennai - 600040","name":"Devi","mobile":"82208 04297","Ward":"103"},
    {"lat":"80.2145194610058","lan":"13.0776870045782","Zone":"8","address":"Naduvankarai, Anna Nagar, Chennai - 600040","name":"Bhuvana","mobile":"87544 07778","Ward":"103"},
    {"lat":"80.2177637423426","lan":"13.0796297773717","Zone":"8","address":"Anna Arch, Anna Nagar, Chennai - 600040","name":"Pushpa","mobile":"73580 60535","Ward":"103"},
    {"lat":"80.2043531609795","lan":"13.1136234598164","Zone":"8","address":"Rajamangalam, Villivakkam, Chennai - 600049","name":"Vijayarani","mobile":"98405 85884","Ward":"94"},
    {"lat":"80.273512245177","lan":"13.218536835941","Zone":"2","address":"No. 164, Edayanchavady Main Road, Manali Puthunagar, Chennai-103","name":"A.Latha","mobile":"8056143095","desi":"","ward":"15"},
    {"lat":"80.2719973241919","lan":"13.2101313548441","Zone":"2","address":"No. 18, Ponniamman Nagar Main Road, Manali Puthunagar, Chennai - 103","name":"S.Chitra","mobile":"9600024008","desi":"","ward":"15"},
    {"lat":"80.2691375331955","lan":"13.1922996710089","Zone":"2","address":"Anna Salai, Andal Kuppam, Chenkunram Highway, Chennai - 103","name":"Sangeetha","mobile":"9791019300","desi":"","ward":"16"},
    {"lat":"80.2691207855994","lan":"13.1922706212133","Zone":"2","address":"Andal Kuppam, Chenkunram Highway, Chennai - 103","name":"Selvi Rubini","mobile":"9941655667","desi":"","ward":"16"},
    {"lat":"80.2566402327295","lan":"13.1732804138118","Zone":"2","address":"CBCL 3rd Main Road Manali Chennai-68","name":"Poongothai","mobile":"9094015612","desi":"","ward":"18"},
    {"lat":"80.2612154389878","lan":"13.1730253037925","Zone":"2","address":"Ekambaram Street, Manali Chennai-68","name":"Manjula","mobile":"8015727392","desi":"","ward":"18"},
    {"lat":"80.2658512770622","lan":"13.1620062735287","Zone":"2","address":"Kamarajar Road, CBCL Nagar, Manali, Chennai - 60","name":"Vijayalakshmi","mobile":"6369009769","desi":"","ward":"20"},
    {"lat":"80.2658409926646","lan":"13.1620300356069","Zone":"2","address":"Kamaraj Road, Lake, New MGR Nagar, Chennai - 68","name":"Bakiyalakshmi","mobile":"7871348856","desi":"","ward":"20"},
    {"lat":"80.2573683702058","lan":"13.1703449914708","Zone":"2","address":"Manali Bus Stand, Nedunchezhiyan Road, Manali, Chennai-68","name":"Gunavathi","mobile":"7871198805","desi":"","ward":"21"},
    {"lat":"80.2582712925201","lan":"13.1668771593534","Zone":"2","address":"Pada Salai Street, Manali, Chennai-68","name":"R.Rajeshwari","mobile":"9789979076","desi":"","ward":"21"},
    {"lat":"80.2631914970269","lan":"13.1629595679729","Zone":"2","address":"Jalakanda Mariamman Kovil Street, Manali, Chennai - 68","name":"Gomathi","mobile":"9444564686","desi":"","ward":"21"},
    {"lat":"80.2631914970269","lan":"13.1629595679729","Zone":"2","address":"No. 42, Devarajan Street, Chinnak Sekkadu, Chennai - 68","name":"Karpagam","mobile":"7358204983","desi":"","ward":"21"},
    {"lat":"80.1530916460934","lan":"13.1299005540088","Zone":"7","address":"Kattabomman Road, Oragadam, Ambattur, Chennai - 600 053","name":"Rajeswari","mobile":"8939711822","desi":"","ward":"79"},
    {"lat":"80.1539422460309","lan":"13.1335291700479","Zone":"7","address":"Gandhi Main Road, Oragadam, Ambattur, Chennai - 600 053","name":"Mohana","mobile":"9940640055","desi":"","ward":"79"},
    {"lat":"80.1561243092111","lan":"13.1312667353077","Zone":"7","address":"West Banu Nagar, Puthur, Ambattur, Chennai - 600 053","name":"Gomathi","mobile":"9600681417","desi":"","ward":"79"},
    {"lat":"80.1539422460309","lan":"13.1335291700479","Zone":"7","address":"1st Street, Face West, Industrial Estate, Reddipalayam, Chennai - 37","name":"Indra","mobile":"9941166407","desi":"","ward":"79"},
    {"lat":"80.1597929573099","lan":"13.1242014423676","Zone":"7","address":"Thangal Park, Puthur Main Road, Ambattur, Chennai - 600 053","name":"Aruljothi","mobile":"9884412614","desi":"","ward":"80"},
    {"lat":"80.154572410685","lan":"13.1179166130766","Zone":"7","address":"No. 18, South Park Street, Venkatapuram, Ambattur, Chennai - 600 053","name":"Santha","mobile":"6374595763","desi":"","ward":"81"},
    {"lat":"80.1502787685235","lan":"13.1194996367513","Zone":"7","address":"MDH Road, Ambattur, O.T. Bus Stand, Chennai - 600 053","name":"Revathi","mobile":"6381927981","desi":"","ward":"81"},
    {"lat":"80.1628206212114","lan":"13.1226442098424","Zone":"7","address":"Mariamman Kovil Street, Menambedu, Ambattur, Chennai - 600 053","name":"Pavalam","mobile":"9677166597","desi":"","ward":"82"},
    {"lat":"80.1694299017038","lan":"13.1178015782455","Zone":"7","address":"Madhavi Street, Karukku Main Road, Ambattur, Chennai - 600 053","name":"Pavalam","mobile":"9677166598","desi":"","ward":"82"},
    {"lat":"80.1985691096489","lan":"13.1141798474232","Zone":"7","address":"Rajiv Gandhi Nagar, Thadankuppam, Korattur, 100 ft Road, Chennai - 49","name":"Vani","mobile":"9551470888","desi":"","ward":"83"},
    {"lat":"80.1842765162661","lan":"13.1134555131129","Zone":"7","address":"Kilaku Nilal Salai, Korattur, Chennai-80","name":"Hema","mobile":"9025395219","desi":"","ward":"83"},
    {"lat":"80.1834218885019","lan":"13.1099332251016","Zone":"7","address":"Vadaku Nilal Salai, Korattur, Chennai-80","name":"Bharathi","mobile":"9600123736","desi":"","ward":"84"},
    {"lat":"80.1691090804964","lan":"13.111207174029","Zone":"7","address":"Kannan Temple Street, Pattaravakkam, C-98.","name":"Anjali","mobile":"8754563677","desi":"","ward":"84"},
    {"lat":"80.1683128926724","lan":"13.1056992865905","Zone":"7","address":"Bajna Temple Street, Patravakkam, Chennai - 600098 (E.B.Road)","name":"Rekha","mobile":"8428704639","desi":"","ward":"85"},
    {"lat":"80.1510826632417","lan":"13.1084196170087","Zone":"7","address":"Sivananda Nagar, Ambattur, Chennai - 600 053","name":"Rajeshwari","mobile":"9551421125","desi":"","ward":"85"},
    {"lat":"80.1525249148813","lan":"13.1069467341248","Zone":"7","address":"MTH Road, Ambattur, Chennai - 600 053 (Near Zonal Office)","name":"Usha","mobile":"9884749259","desi":"","ward":"85"},
    {"lat":"80.1591246092637","lan":"13.0936210181841","Zone":"7","address":"Vanagaram Main Road, Attipattu, Ambattur, C-58","name":"Amutha","mobile":"8072347593","desi":"","ward":"86"},
    {"lat":"80.1724379428984","lan":"13.1014634647695","Zone":"7","address":"Nehru Nagar, Mannurpet, Chennai - 600 050","name":"Thangamani","mobile":"7299254975","desi":"","ward":"86"},
    {"lat":"80.1845207468893","lan":"13.0964636956707","Zone":"7","address":"No. 3, M.T.H Road, padi, Chennai - 600 050","name":"Thilagam","mobile":"9710643880","desi":"","ward":"87"},
    {"lat":"80.1786651713626","lan":"13.0955078924264","Zone":"7","address":"Church Road, Padi, Chennai - 600050","name":"Pachaiyammal","mobile":"86081079322","desi":"","ward":"87"},
    {"lat":"80.188931897209","lan":"13.0942880204906","Zone":"7","address":"Mahatma Gandhi Road, Kumaran Nagar, Padi, Chennai - 600 050,","name":"Reeta","mobile":"8825823432","desi":"","ward":"88"},
    {"lat":"80.1908151801019","lan":"13.1009495227215","Zone":"7","address":"Pandurangapuram, Padi, Chennai - 600 050.","name":"Pushpa","mobile":"8939159998","desi":"","ward":"88"},
    {"lat":"80.18981417834","lan":"13.0853061648226","Zone":"7","address":"3rd Street, Padiputhunagar, Anna Nagar West, Chennai - 600 101","name":"Jaya","mobile":"8124249122","desi":"","ward":"90"},
    {"lat":"80.1971948211687","lan":"13.0818698191966","Zone":"8","address":"Thirumangalam, Anna Nagar, Chennai - 600040","name":"Mohana","mobile":"90948 66228","Ward":"90"},
    {"lat":"80.180676660888","lan":"13.0812649765263","Zone":"7","address":"10th Block, Pattinathar Road, Mogappair East","name":"Prema","mobile":"9710898010","desi":"","ward":"92"},
    {"lat":"80.1826360052395","lan":"13.0842312562423","Zone":"7","address":"12th Block, Kannadasan Road, Mogappair East, Chennai - 600 037","name":"Gomathi","mobile":"8939552985","desi":"","ward":"92"},
    {"lat":"80.1857910587486","lan":"13.0788849746177","Zone":"7","address":"6th Block, Burner Road,  Mogappair East, Chennai - 600 037","name":"Usha","mobile":"9840235958","desi":"","ward":"93"},
    {"lat":"80.1888185849014","lan":"13.0766273368629","Zone":"7","address":"Pillaiyar Kovil Street, Padikuppam, Chennai School Campus Chennai 600 107.","name":"Sudha","mobile":"9094135780","desi":"","ward":"93"},
    {"lat":"80.1881548665178","lan":"13.086936069359","Zone":"7","address":"Bazaar Road, Collector Nagar Park, Near Ganga Sweets, Chennai","name":"Rajeswari","mobile":"9841130920","desi":"","ward":"89"},
    {"lat":"80.1934557738893","lan":"12.9967055111264","Zone":"12","address":"M.K.N. Road, Alandur, Chennai - 16","name":"C.Saraswathi","mobile":"9094384600","desi":"","ward":"162"},
    {"lat":"80.1854525121877","lan":"12.9879830790445","Zone":"12","address":"Krishna Sami Street, Palavanthangal, Chennai - 114","name":"S.Deepika","mobile":"6380909748","desi":"","ward":"164"},
    {"lat":"80.1884698294744","lan":"12.9846151178306","Zone":"12","address":"Nanganallur 4th Main Road, Nanganallur Chennai- 61","name":"Shanthi Vimala","mobile":"9884292679","desi":"","ward":"164"},
    {"lat":"80.1917120701718","lan":"13.0164150681437","Zone":"12","address":"No. 51, Bajanai koil treet, Nandambakkam, Chennai - 27","name":"V.Amul","mobile":"6383643828","desi":"","ward":"158"},
    {"lat":"80.1696969736099","lan":"12.982755261161","Zone":"12","address":"Kamarajar Street, Meenambakkam, Chennai - 16","name":"S.Jaya","mobile":"9087732693","desi":"","ward":"159"},
    {"lat":"80.173500001235","lan":"12.9858999993035","Zone":"12","address":"GST Road, Meenambakkam, Chennai","name":"S.Jaya","mobile":"9087732693","desi":"","ward":"159"},
    {"lat":"80.1838129399527","lan":"12.9797526847279","Zone":"12","address":"Hindu Colony 100 ft Road, Nanganallur, Chennai-61","name":"Sankari","mobile":"8072550053","desi":"","ward":"167"},
    {"lat":"80.1881214777832","lan":"12.9703984812027","Zone":"12","address":"Kannan Nagar, 1st Main Road, Nanganallur, Chennai-61","name":"Sankari","mobile":"8072550053","desi":"","ward":"167"},
    {"lat":"80.1662812227866","lan":"13.0125686404891","Zone":"12","address":"Manappakkam Main Road, Manappakkam, Chennai - 125","name":"P.Navamani","mobile":"6382764178","desi":"","ward":"157"},
    {"lat":"80.1750229479605","lan":"13.0159601367988","Zone":"12","address":"MGR Road, Valleeswaran Koil Street, Manappakkam,","name":"P.Navamani","mobile":"6382764178","desi":"","ward":"157"},
    {"lat":"80.1813800018624","lan":"12.9770730698601","Zone":"12","address":"Nehru High road, Nanganallur, Chennai-61","name":"Rani","mobile":"7299402726","desi":"","ward":"166"},
    {"lat":"80.181899998882","lan":"12.9690000004218","Zone":"12","address":"BV Nagar, 3rd Street, Near Burma Tamilar Colony, Chennai-14","name":"Amjuvalli","mobile":"883894898","desi":"","ward":"166"},
    {"lat":"80.1967177071039","lan":"12.9812725950402","Zone":"12","address":"New South Street, Vanuvampet, Chennai-91","name":"Shanthi","mobile":"9600010642","desi":"","ward":"165"},
    {"lat":"80.155599999569","lan":"13.0216999983884","Zone":"12","address":"No.1 / 162, Madanandapuram Main Road, Mugalivakkam,  Chennai-16","name":"Sheela","mobile":"9840389758","desi":"","ward":"156"},
    {"lat":"80.1665190434903","lan":"13.0207021252417","Zone":"12","address":"Pada Salai Street Mukalivakkam, Chennai - 16","name":"Sheela","mobile":"9840389758","desi":"","ward":"156"},
    {"lat":"80.2360510911072","lan":"13.1135639886382","Zone":"6","address":"No. 240, Paper Mills Road, Perambur, Chennai-11","name":"Jabamalai","mobile":"9962826742","desi":"","ward":"67"},
    {"lat":"80.2327984633499","lan":"13.1220033617175","Zone":"6","address":"Thiru.Vi.Ka Nagar 3rd Street, Gopalapuram, Chennai-11","name":"Sujatha","mobile":"8939497612","desi":"","ward":"67"},
    {"lat":"80.2325869030448","lan":"13.1210393442131","Zone":"6","address":"No. 45, Jamaliya Main Road, Perambur, Chennai-11","name":"Kalaiselvi","mobile":"9094666144","desi":"","ward":"67"},
    {"lat":"80.2428267699359","lan":"13.1164071301385","Zone":"4","address":"Amman koil street perabur vyasarpadi chennai-11","name":"J. Prasanna","mobile":"7358400159","desi":"","ward":"70"},
    {"lat":"80.2428178394029","lan":"13.120578606878","Zone":"6","address":"Madhavaram Main Road, Perambur, Chennai-11","name":"Lakshmi","mobile":"8939168944","desi":"","ward":"70"},
    {"lat":"80.2429315106772","lan":"13.1085653515649","Zone":"6","address":"No-13/33, Bharathi Road, Perambur, Chennai-11","name":"Geetha","mobile":"9940459942","desi":"","ward":"71"},
    {"lat":"80.2472600164971","lan":"13.1072542408088","Zone":"6","address":"Perambur Main Road, Perambur, Chennai - 11","name":"Velankanni","mobile":"9790845954","desi":"","ward":"71"},
    {"lat":"80.2457980685243","lan":"13.1047228925945","Zone":"6","address":"No-14, Chandra Yogi Samadhi Street, Perambur, Chennai - 12","name":"Bhavani","mobile":"7010681973","desi":"","ward":"74"},
    {"lat":"80.2671375868792","lan":"13.0955122844352","Zone":"6","address":"No. 33, KP Park,  Pattalam, Chennai-12","name":"Deisy Rani","mobile":"9566241088","desi":"","ward":"77"},
    {"lat":"80.2624859555274","lan":"13.0980974818289","Zone":"6","address":"No. 204, Sivarajapuram,  Pattalam, Chennai","name":"Menaga","mobile":"7401374045","desi":"","ward":"77"},
    {"lat":"80.2281374400351","lan":"13.1087544198242","Zone":"6","address":"No.14 Logo Works Scheme Road, Agaram, Chennai - 82","name":"Suganthi","mobile":"9840635995","desi":"","ward":"69"},
    {"lat":"80.2643723810237","lan":"13.09098522897","Zone":"6","address":"No. 2, Kuravan Kulam, Choolai, Chennai-112","name":"Vijaya","mobile":"9884890316","desi":"","ward":"78"},
    {"lat":"80.2548085933951","lan":"13.0886727608719","Zone":"6","address":"No. 101, Thana Street, Purasaivakkam, Chennai-07","name":"Vani","mobile":"8754330272","desi":"","ward":"78"},
    {"lat":"80.2534034794609","lan":"13.0950101859767","Zone":"3","address":"Padavattamman Kovil street, K.K. Thalai, Chennai - 51","name":"S. Revathi","mobile":"6369591798","desi":"","ward":"76"},
    {"lat":"80.2520862851596","lan":"13.0941663538517","Zone":"6","address":"No. 11A, Valluvan Street, Otteri, Chennai-12","name":"Kalaivani","mobile":"9500191336","desi":"","ward":"76"},
    {"lat":"80.256185354363","lan":"13.0947576458595","Zone":"6","address":"No. 155/65, Sachithanandam Street, Kosapet, Chennai-12","name":"Vijaya","mobile":"9941779992","desi":"","ward":"76"},
    {"lat":"80.2568121292495","lan":"13.0933786280334","Zone":"6","address":"No. 27, Venkatesh Bhaktan Street, Choolai, Chennai - 112","name":"Selvi","mobile":"8428097160","desi":"","ward":"76"},
    {"lat":"80.260562441037","lan":"13.0946381072722","Zone":"6","address":"K.M. Garden,  Pattalam, Chennai-12","name":"Prasanna","mobile":"9791030297","desi":"","ward":"76"},
    {"lat":"80.2026753396041","lan":"13.1261373732265","Zone":"6","address":"No. 165, Bharat Rajiv Gandhi Nagar, Kolathur, Chennai-99","name":"Sumathi","mobile":"8825510509","desi":"","ward":"64"},
    {"lat":"80.2165247924608","lan":"13.1113225889752","Zone":"6","address":"Jambulingam Main Road, GKM Colony, Perambur, Chennai -11","name":"Jessi Clara","mobile":"7299625051","desi":"","ward":"64"},
    {"lat":"80.2428097298595","lan":"13.0934013317761","Zone":"6","address":"No.31 / 4, AK Sami Madam, Ranganathapuram, Kilpauk, Chennai-12","name":"Deisy Rani","mobile":"8438243995","desi":"","ward":"75"},
    {"lat":"80.2451108521093","lan":"13.0958129446475","Zone":"6","address":"No.46, Suburayan 2nd Street, Nammalwarpet, Otteri, Chennai-12","name":"Nithya","mobile":"9094811967","desi":"","ward":"75"},
    {"lat":"80.2508370531115","lan":"13.0932031607195","Zone":"6","address":"Bricklin Road, 2nd Street, SS Puram Otteri, Chennai-12","name":"Sambuvalli","mobile":"9500191336","desi":"","ward":"75"},
    {"lat":"80.2602049015021","lan":"13.1009592905999","Zone":"6","address":"No. 71, Dr. Ambedkar College Road, Puliyanthoppu, Chennai-12","name":"Shobana","mobile":"9840776405","desi":"","ward":"73"},
    {"lat":"80.2602049015021","lan":"13.1009592905999","Zone":"6","address":"No. 143, New France Road, Pattalam, Chennai-12","name":"Gayathiri","mobile":"7904308972","desi":"","ward":"73"},
    {"lat":"80.2632","lan":"13.1044","Zone":"6","address":"No. 12, 2nd Street, Thiru.V.K Nagar, Kannikapuram, Chennai-12","name":"Mariyammal","mobile":"9092842012","desi":"","ward":"72"},
    {"lat":"80.2642310011355","lan":"13.108331337888","Zone":"6","address":"No. 1/10, 7th Street, Venkatesapuram, Puliyanthoppu, Chennai-12","name":"Devi","mobile":"7397259645","desi":"","ward":"72"},
    {"lat":"80.1663830379169","lan":"13.0413865896242","Zone":"11","address":"Mettukkuppam Main Road, Maduravoyal, Chennai-95,","name":"Omana","mobile":"9790717033","desi":"","ward":"147"},
    {"lat":"80.1768000017422","lan":"13.0533000009904","Zone":"11","address":"No.3 / 88, Gandhi Street, Ganganagar, Maduravoyal, Chennai-95,","name":"Sathya","mobile":"9840823536","desi":"","ward":"147"},
    {"lat":"80.1663830379169","lan":"13.0413865896242","Zone":"11","address":"Gangayamman Nagar, Alapakkam, Chennai-95,","name":"Porkodi","mobile":"8608006661","desi":"","ward":"147"},
    {"lat":"80.1796000007839","lan":"13.0586738709327","Zone":"11","address":"Bala Vinayagar Nagar, Nerkunram, Chennai-107.","name":"Chitradevi","mobile":"9361922353","desi":"","ward":"148"},
    {"lat":"80.1796000007839","lan":"13.0586738709327","Zone":"11","address":"Kamaraj Highway, Nerkunram, Chennai-107,","name":"Sangeeta","mobile":"9677229322","desi":"","ward":"148"},
    {"lat":"80.1849999985043","lan":"13.0474999994024","Zone":"11","address":"Gandhi Road, Alwar Thirunagar, Chennai-89","name":"Bakkiyalakshmi","mobile":"9003217359","desi":"","ward":"149"},
    {"lat":"80.1815345987163","lan":"13.0509882278045","Zone":"11","address":"Sammantham Nagar, Main Road, Alwar Thirunagar, Chennai-87.","name":"Indirani","mobile":"9677260347","desi":"","ward":"149"},
    {"lat":"80.156338744085","lan":"13.0401580691164","Zone":"11","address":"Mullai Street, Ponni Nagar, Karambakkam, Chennai","name":"Thilaga","mobile":"8838000397","desi":"","ward":"150"},
    {"lat":"80.1590333556382","lan":"13.0370240829672","Zone":"11","address":"Anjaneyar Temple Street, Porur, C-114","name":"Indira","mobile":"9841918530","desi":"","ward":"151"},
    {"lat":"80.1699631138628","lan":"13.0369043563266","Zone":"11","address":"Hospital Road Chinnaporur, Chennai-116,","name":"Rohini","mobile":"7338751220","desi":"","ward":"151"},
    {"lat":"80.1659146826994","lan":"13.0623344476068","Zone":"11","address":"1st Cross Street, South Loft Road, Maduravoyal, Chennai-95,","name":"Mohanasundari","mobile":"6374053605","desi":"","ward":"146"},
    {"lat":"80.1627940551242","lan":"13.0516536433421","Zone":"11","address":"Ganapathy Nagar, Union Road, Maduravoyal, Chennai-95.","name":"Neela","mobile":"8681043237","desi":"","ward":"146"},
    {"lat":"80.1816252935729","lan":"13.0323362274717","Zone":"11","address":"Bajnai Temple Street, Ramapuram, Chennai-89,","name":"Priya","mobile":"8248602526","desi":"","ward":"155"},
    {"lat":"80.1829315904676","lan":"13.0351373835183","Zone":"11","address":"V.O.C. 2nd Cross Street, Thirumalai Nagar, Ramapuram, Chennai-89.","name":"Tamilarasi","mobile":"7358223251","desi":"","ward":"155"},
    {"lat":"80.1790607811877","lan":"13.0316918046233","Zone":"11","address":"Bharathi Salai, Ramapuram, Chennai-89.","name":"Sumathi","mobile":"6382945218","desi":"","ward":"155"},
    {"lat":"80.1856925372907","lan":"13.0665124712233","Zone":"11","address":"Mata Kovil Street, Nerkunram, Chennai-107,","name":"Sangeetha","mobile":"9003143552","desi":"","ward":"145"},
    {"lat":"80.1807501170741","lan":"13.0689930462162","Zone":"11","address":"Onion Mandi, Nerkunram, Chennai-107","name":"Revathi","mobile":"8608536694","desi":"","ward":"145"},
    {"lat":"80.1738575328137","lan":"13.0349312102135","Zone":"11","address":"Alangulam, Ramapuram Bus Stand, Chennai-89,","name":"Vanitha","mobile":"9884702948","desi":"","ward":"154"},
    {"lat":"80.1778285261798","lan":"13.0684514219855","Zone":"11","address":"No.29, Nagathamman Kovil Street, Maduravoyal, Chennai-95,","name":"Sumathi","mobile":"8122333183","desi":"","ward":"144"},
    {"lat":"80.1619129249846","lan":"13.0329693680489","Zone":"11","address":"Mount Poonamallee Highway, Chennai-116,","name":"Kavitha","mobile":"8248669884","desi":"","ward":"153"},
    {"lat":"80.1536731779589","lan":"13.0307638884999","Zone":"11","address":"Wireless Station Road, Porur, Chennai-116.","name":"Bhuvaneshwari","mobile":"6381368852","desi":"","ward":"153"},
    {"lat":"80.1719000003772","lan":"13.0412000004495","Zone":"11","address":"Arcot Road, Valasaravakkam, Chennai","name":"Sugunya","mobile":"8825923618","desi":"","ward":"152"},
    {"lat":"80.186440186056","lan":"13.0402851237349","Zone":"11","address":"Thiruvalluvar Road, Alwarthirunagar, Chennai-87,","name":"Eswari","mobile":"8608997685","desi":"","ward":"152"},
    {"lat":"80.2872728601023","lan":"13.1149223159556","Zone":"4","address":"No.5/3, Bommi Sivaramalu Street, Old Washermenpet, Chennai-21","name":"Renugadevi","mobile":"9380954801","desi":"","ward":"49"},
    {"lat":"80.2891628281313","lan":"13.113788881523","Zone":"5","address":"No. 8/26, Singara Garden 4th Lane, Old Washermenpet, Chennai -21.","name":"Pamitha","mobile":"9940586293","desi":"","ward":"49"},
    {"lat":"80.2925173592714","lan":"13.1166090663484","Zone":"5","address":"No. 502, S. N. Chetty Street, Royapuram, Chennai -13.","name":"Maha Lakashmi","mobile":"9710963173","desi":"","ward":"49"},
    {"lat":"80.2921868299671","lan":"13.1098474192342","Zone":"5","address":"No. , M.S.Kovil Street, Royapuram, Chennai - 13.","name":"Riyana Begum","mobile":"9150002065","desi":"","ward":"50"},
    {"lat":"80.2845832795473","lan":"13.1067330224659","Zone":"5","address":"No.45,Stanly Hospital Road, Royapuram, Chennai -13.","name":"Jayanthi","mobile":"8056131791","desi":"","ward":"52"},
    {"lat":"80.2859435958293","lan":"13.1060610446926","Zone":"5","address":"Stanley - Government Stanley General Hospital, chennai-21.","name":"Revathi","mobile":"9176690147","desi":"","ward":"52"},
    {"lat":"80.2783578023509","lan":"13.1115702287746","Zone":"5","address":"No. 10, Dr. Vijayaragalu Road, Old Washermenpet, Chennai21","name":"Nalini","mobile":"7550240003","desi":"","ward":"52"},
    {"lat":"80.2902238170878","lan":"13.1079038741073","Zone":"5","address":"No.96, Thoppai Street, Royapuram, Chennai -13.","name":"Sri Devi","mobile":"9003166569","desi":"","ward":"52"},
    {"lat":"80.2798835503551","lan":"13.1038780240664","Zone":"5","address":"No. 176/428, Thanga Salai, Sowcarpet, Chennai-79","name":"Linda","mobile":"984049850","desi":"","ward":"54"},
    {"lat":"80.2797746773965","lan":"13.0969743259993","Zone":"5","address":"No. 508, Thanga Salai, Sowcarpet, Chennai-79","name":"Jaya Baharthi","mobile":"9962164179","desi":"","ward":"54"},
    {"lat":"80.2806648983735","lan":"13.096440855956","Zone":"5","address":"No.37, Nattupillaiyar Kovil Street,  Seven Wells, Chennai-1","name":"Dhanam","mobile":"9677052615","desi":"","ward":"55"},
    {"lat":"80.283223360124","lan":"13.1020375592477","Zone":"5","address":"No. 44, Periyanna Street, Seven Wells, Chennai-1","name":"Januma","mobile":"9710773181","desi":"","ward":"55"},
    {"lat":"80.2893784130572","lan":"13.0993421356442","Zone":"5","address":"No.120, Pavalakkara Street, Mannady, Chennai-1","name":"Malini","mobile":"9094931678","desi":"","ward":"56"},
    {"lat":"80.275787194486","lan":"13.0950997222697","Zone":"5","address":"No. 67, Annapillai Street, Chennai-79","name":"Jamuna","mobile":"9710613108","desi":"","ward":"57"},
    {"lat":"80.2855793033646","lan":"13.0926115702755","Zone":"5","address":"No. 34, Davidson Street, Broadway, Chennai-1","name":"Komathi","mobile":"7358792830","desi":"","ward":"57"},
    {"lat":"80.2592541045342","lan":"13.0896787738159","Zone":"5","address":"No. 68, Kalathiyappa Street, Choolai, Chennai-112","name":"Kalai","mobile":"9176241014/7550285043","Ward":"58"},
    {"lat":"80.2722948878524","lan":"13.0652386963586","Zone":"5","address":"No. 19/8, Balamuthu Street, Ellis Road, Chennai","name":"Malar","mobile":"8680994375","desi":"","ward":"59"},
    {"lat":"80.2834162105132","lan":"13.0853658433985","Zone":"5","address":"Brazer Bridge Salai (Behind Broadway Bus Stop),Parktown , Chennai -03.","name":"Revathi","mobile":"8056098863","desi":"","ward":"59"},
    {"lat":"80.2776645254949","lan":"13.081604294679","Zone":"5","address":"RGGH - E.V.R Salai, Chennai-03","name":"Usha","mobile":"9962525289","desi":"","ward":"59"},
    {"lat":"80.2938496762144","lan":"13.1011603208706","Zone":"5","address":"No. 57, 3rd Beach Road, Lane, Chennai-1","name":"Parvathi","mobile":"9444575361","desi":"","ward":"60"},
    {"lat":"80.2879793761307","lan":"13.0965934578747","Zone":"5","address":"No.1, Ayyappa Chetty Street, Mannady, Chennai-1","name":"Ganaeswari","mobile":"9344230496","desi":"","ward":"60"},
    {"lat":"80.252104566846","lan":"13.0764004514289","Zone":"5","address":"No. 2, Gengureddy Street, Egmore, Chennai-8","name":"M. Rajamani","mobile":"9551208582","desi":"","ward":"61"},
    {"lat":"80.2566594540256","lan":"13.073284253166","Zone":"5","address":"No. 18, Government Children's Hospital, Tamil Salai, Egmore, Chennai-8","name":"K. Fathi Muthu","mobile":"9940484997","desi":"","ward":"61"},
    {"lat":"80.2644954723891","lan":"13.0757145265904","Zone":"5","address":"No. 3, Pantheon Road, Varadharajapuram, Egmore, Chennai-8","name":"Annarani","mobile":"8939041998","desi":"","ward":"61"},
    {"lat":"80.260752091381","lan":"13.0695942306178","Zone":"5","address":"No. 150, Government Eye Hospital, Rukmini Lakshmipathy Road, Egmore, Chennai-8","name":"Ammul","mobile":"9791188053","desi":"","ward":"61"},
    {"lat":"80.2670941483591","lan":"13.0735975243155","Zone":"5","address":"No. 43, West Koovam Road, Chindaripet, Chennai-2","name":"Ramana","mobile":"7401245422","desi":"","ward":"62"},
    {"lat":"80.2728351785325","lan":"13.0745756956923","Zone":"5","address":"No. 96/2, Arunachalam Street,  Chindaripet Chennai-2","name":"Kumari","mobile":"8778865701","desi":"","ward":"62"},
    {"lat":"80.2676758650391","lan":"13.0584788997766","Zone":"5","address":"No. 198, Bharathi Road, Royapettah, Chennai-14","name":"Jeeva","mobile":"9080541253","desi":"","ward":"63"},
    {"lat":"80.2649279971308","lan":"13.070068290495","Zone":"5","address":"No. 4, Veerabathiran Street, Pudupettai, Chennai-02","name":"Praveena","mobile":"6380763748","desi":"","ward":"63"},
    {"lat":"80.286562701852","lan":"13.1142104663972","Zone":"5","address":"No. 83, Perambalu Chetty Street, Old Washermenpet, Ch-21.","name":"Seetha Lakshmi","mobile":"9514425777","desi":"","ward":"51"},
    {"lat":"80.2886726322836","lan":"13.1095471379003","Zone":"5","address":"R.S.R.M - Government R.S.R.M Hospital, Chennai-21","name":"Chitra","mobile":"9840435465","desi":"","ward":"51"},
    {"lat":"80.2857675482343","lan":"13.1100614591428","Zone":"5","address":"No. 18, Manikandan 6th Street, Old Washermenpet, Chennai -21.","name":"Kalvikarasi","mobile":"8778687462","desi":"","ward":"51"},
    {"lat":"80.2758205666055","lan":"13.1038723215889","Zone":"5","address":"No. 44, Padavattamman Temple Street, Washermenpet, Chennai21","name":"Vijaya Lakshmi","mobile":"9841359357","desi":"","ward":"53"},
    {"lat":"80.2123651321659","lan":"13.0546738690684","Zone":"10","address":"No.1, Subramaniam Street, Nerkunram Road, Vadapalani, Chennai - 26","name":"Deviga","mobile":"8939061639","desi":"","ward":"130"},
    {"lat":"80.2090911342092","lan":"13.0561965922507","Zone":"10","address":"No. 1 NGO Colony Main Road, 100ft Road, Ambika Empire, Chennai-26.","name":"Kavitha","mobile":"8015428621","desi":"","ward":"130"},
    {"lat":"80.2054922477026","lan":"13.0391221585485","Zone":"10","address":"AB Patro Road, KK Nagar, Chennai-78","name":"Rekha","mobile":"9043529624","desi":"","ward":"136"},
    {"lat":"80.2206873163071","lan":"13.0452476557992","Zone":"3","address":"GNT Road, Puhal, Chennai - 66","name":"Malathi","mobile":"9790786275","desi":"","ward":"131"},
    {"lat":"80.219106862602","lan":"13.0402309804295","Zone":"4","address":"24th Block, SM Nagar, Vyasarpadi, Chennai-39","name":"Kanumathi","mobile":"9952955970","desi":"","ward":"131"},
    {"lat":"80.2171195187648","lan":"13.0411942564171","Zone":"10","address":"No.4, 24th Street, LGGS Colony, (Playground) Ashok Nagar, Chennai-83","name":"Gunasundari","mobile":"9884242760","desi":"","ward":"131"},
    {"lat":"80.2173917629494","lan":"13.0326704062376","Zone":"10","address":"60th Street, Ashok Nagar, Nallan Kuppam, Govindan Road, Chennai - 83","name":"Janaki","mobile":"7305652697","desi":"","ward":"131"},
    {"lat":"80.2208999995198","lan":"13.0513000001608","Zone":"10","address":"No.1, Kamarajar Colony, Main Road, Kodambakkam, C-24","name":"Shanthi","mobile":"9940546943","desi":"","ward":"132"},
    {"lat":"80.2309000009766","lan":"13.0540000018708","Zone":"10","address":"NSK Road, Kodambakkam, Chennai-24","name":"Vanaja","mobile":"7550187329","desi":"","ward":"132"},
    {"lat":"80.2046658005878","lan":"13.0496630354554","Zone":"10","address":"\nNo. 1, V.V.Temple Street, Majeed Nagar, Saligramam, Chennai - 93","name":"Lakshmi","mobile":"9962841240","desi":"","ward":"129"},
    {"lat":"80.203663422832","lan":"13.0491156705382","Zone":"10","address":"Arunachalam Road, Saligramam, Chennai-93","name":"Subbulakshmi","mobile":"9841228667","desi":"","ward":"129"},
    {"lat":"80.205003504347","lan":"13.0308833643845","Zone":"10","address":"No.1, R.R. 2nd Street, Jafarkanpet , Chennai-83","name":"Sathya","mobile":"9840449070","desi":"","ward":"138"},
    {"lat":"80.1969894322475","lan":"13.0531112729482","Zone":"10","address":"No.77, Kamaraj Road, Virugambakkam, Chennai-92","name":"Pushpa","mobile":"9791131355","desi":"","ward":"128"},
    {"lat":"80.1907902812889","lan":"13.052909971457","Zone":"10","address":"No.63, Elango Nagar, 1st Main Road, Virugambakkam, Chennai-92","name":"Manju","mobile":"8220342427","desi":"","ward":"128"},
    {"lat":"80.1923575751859","lan":"13.0382210298293","Zone":"10","address":"No.1, Anna Main Road, West KK Nagar, Chennai-78","name":"Shanthi","mobile":"9600944857","desi":"","ward":"128"},
    {"lat":"80.1971521387314","lan":"13.0360968155341","Zone":"4","address":"MGR Nagar,  Tondairpet,, Chennai-13","name":"R. Radhika","mobile":"9962386868","desi":"","ward":"137"},
    {"lat":"80.1953627225131","lan":"13.042910987505","Zone":"10","address":"No.27, 61st Street, 10th Sector, West KK Nagar, Chennai-78","name":"Indra","mobile":"9941662663","desi":"","ward":"137"},
    {"lat":"80.1930770447825","lan":"13.0641806672173","Zone":"10","address":"No.1, Ayyappa Nagar Main Road, Koyambedu, Chennai - 107","name":"V.Sulochana","mobile":"9940574865","desi":"","ward":"127"},
    {"lat":"80.1990133368779","lan":"13.0582742922879","Zone":"10","address":"No.1 Semathamman Temple Street, Koyambedu, Chennai - 107","name":"Jayapriya","mobile":"9500550702","desi":"","ward":"127"},
    {"lat":"80.2340999991895","lan":"13.0421000010273","Zone":"10","address":"No.30, Prakasam Road,  T.Nagar, Chennai-17","name":"Revathi","mobile":"9940290476","desi":"","ward":"133"},
    {"lat":"80.2328850389595","lan":"13.0292196398661","Zone":"10","address":"C.I.T. Nagar, 4th Main Road, Saidapet, Chennai-15","name":"Bhavani","mobile":"9943318189","desi":"","ward":"141"},
    {"lat":"80.2303885887321","lan":"13.0308452144216","Zone":"10","address":"No.63, South Usman Road, Lalitha Puram, Kannamapet, Chennai-17","name":"Megala","mobile":"9094166728","desi":"","ward":"141"},
    {"lat":"80.2232999986416","lan":"13.0388000007793","Zone":"10","address":"No.3, Thambiya Road, West Mambalam, Chennai-33","name":"Magalya Gowri","mobile":"9962614187","desi":"","ward":"134"},
    {"lat":"80.2203653241493","lan":"13.0379945965859","Zone":"10","address":"No.1, Brindavan Street, West Mambalam, Chennai - 33","name":"Sathya","mobile":"9840961966","desi":"","ward":"134"},
    {"lat":"80.2732573275107","lan":"13.1300024072164","Zone":"4","address":"Ezhil Nagar, Kodungaiyur, Chennai-118","name":"S. Kannagi","mobile":"7299377613","desi":"","ward":"41"},
    {"lat":"80.274969478305","lan":"13.1275206353388","Zone":"4","address":"Nehru Nagar Main Road,  Tondairpet, Chennai-81","name":"S.Kavitha","mobile":"7401672757","desi":"","ward":"41"},
    {"lat":"80.2924908318093","lan":"13.1345464718922","Zone":"4","address":"Keerai Thottam, New Washermenpet Chennai-81","name":"Neela","mobile":"6380960996","desi":"","ward":"40"},
    {"lat":"80.2618515445618","lan":"13.1235845911797","Zone":"4","address":"No.3, 3rd Main Street Mahakavi Bharathiar Nagar, Near Police Station Vyasarpadi, Chennai-39","name":"P.C. Gajalakshmi","mobile":"8144791129","desi":"","ward":"37"},
    {"lat":"80.2443525037185","lan":"13.115669459802","Zone":"4","address":"Melpatti Ponnappan Street, Perambur, Chennai-11","name":"S. Kalaivani","mobile":"9840706215","desi":"","ward":"44"},
    {"lat":"80.2876747081501","lan":"13.1257747110999","Zone":"4","address":"No.80 Seniyamman Temple Street, Tondairpet,Chennai.","name":"S. Pramila","mobile":"8056912477","desi":"","ward":"42"},
    {"lat":"80.284627041581","lan":"13.1257790505616","Zone":"4","address":"Tilagar Nagar, Old Washermenpet, Chennai-13","name":"N. Velmozhi","mobile":"9551535193","desi":"","ward":"42"},
    {"lat":"80.2820249832206","lan":"13.1189402960345","Zone":"4","address":"Kannikoil Street, Old Washermenpet, Chennai-21","name":"Tamil Selvi","mobile":"6374988187","desi":"","ward":"42"},
    {"lat":"80.2741237615437","lan":"13.1162452008279","Zone":"4","address":"Meenambal Nagar, 4th Street, Korukkupettai, Chennai-21","name":"S. Sankareeswari","mobile":"9791042433","desi":"","ward":"47"},
    {"lat":"80.2761187374558","lan":"13.1192031707661","Zone":"4","address":"Sikirinthapalayam, 5th Street, Korukkupet, Chennai-21","name":"Valarmathi","mobile":"9551722086","desi":"","ward":"47"},
    {"lat":"80.2758622132108","lan":"13.1204755745802","Zone":"4","address":"JJ Nagar, Korukkupet,Chennai-21","name":"V. Shanthi","mobile":"9094817622","desi":"","ward":"47"},
    {"lat":"80.2609158391681","lan":"13.1108770758134","Zone":"4","address":"Mayor Krishnamoorthy Street, Ganesapuram, Vyasarpadi, Chennai-39","name":"Sumathi","mobile":"8870236431","desi":"","ward":"45"},
    {"lat":"80.2576584352811","lan":"13.1136968825971","Zone":"4","address":"Sanjay Nagar 1st Street,  Vyasarpadi, Chennai-39","name":"S. Sarojini","mobile":"7550142720","desi":"","ward":"45"},
    {"lat":"80.2535771210148","lan":"13.1183827971144","Zone":"4","address":"No.10 Shastri Nagar 11th Street Vyasarpadi, Chennai-39","name":"G. Arokiamary","mobile":"9962174103","desi":"","ward":"45"},
    {"lat":"80.2431920000203","lan":"13.1444454206284","Zone":"4","address":"No.6, Venteshwara Colony 6th Street Kodungaiyur, Chennai-118","name":"V. Bhavani","mobile":"9566061921","desi":"","ward":"34"},
    {"lat":"80.2455552352913","lan":"13.1376153086406","Zone":"4","address":"N.M.Center, Muthamil Nagar 2nd Block 6th Main Road, Kodungaiyur, Chennai.118","name":"R. Jayanthi","mobile":"9884649733","desi":"","ward":"35"},
    {"lat":"80.2565037124535","lan":"13.1337130454052","Zone":"4","address":"7th Block, Kannadasan Nagar, Kodungaiyur, Chennai.118","name":"D. Nandhini Priya","mobile":"8610459055","desi":"","ward":"35"},
    {"lat":"80.2534076933759","lan":"13.1273685091596","Zone":"4","address":"Erukkancherry Highway, Behind Indian Bank, Chennai.118","name":"P. Gnanavoli","mobile":"9345673238","desi":"","ward":"36"},
    {"lat":"80.2508502894793","lan":"13.1261149854948","Zone":"4","address":"Soopunal Karai, Vyasarpadi, Chennai-39","name":"M. Jayamary","mobile":"9940327740","desi":"","ward":"36"},
    {"lat":"80.2593257612107","lan":"13.1184295175711","Zone":"4","address":"C Kalyanapuram, Vyasarpadi, Chennai-39","name":"B. Thilagam","mobile":"9677172661","desi":"","ward":"36"},
    {"lat":"80.2985865123592","lan":"13.1600393302975","Zone":"1","address":"North Mada Street, Tiruvottiyur, Chennai - 19","name":"D.Shanthi","mobile":"8015400382","desi":"","ward":"10"},
    {"lat":"80.3001291272171","lan":"13.1619341950115","Zone":"1","address":"West Mada Street, Tiruvottiyur, Chennai - 19","name":"Jothilakshmi","mobile":"9940462123","desi":"","ward":"10"},
    {"lat":"80.3014064596336","lan":"13.1572390502084","Zone":"1","address":"No 185, Tiruvottiyur Highway, Tiruvottiyur, Chennai-19","name":"Baby Sarojini","mobile":"8610561775","desi":"","ward":"11"},
    {"lat":"80.3042358832009","lan":"13.1572718535422","Zone":"1","address":"Ellaiyamman Kovil Street, Tiruvottiyur, Chennai-57","name":"V.Aswini","mobile":"8939022885","desi":"","ward":"11"},
    {"lat":"80.3164493962917","lan":"13.2162361078682","Zone":"1","address":"Kathivakkam High Road, Chennai -  57.","name":"P.Mala","mobile":"8605755633","desi":"","ward":"2"},
    {"lat":"80.3201509423856","lan":"13.2146123006913","Zone":"1","address":"Grama Street, Ennore, Chennai - 57.","name":"Suganthi","mobile":"9791129942","desi":"","ward":"2"},
    {"lat":"80.32027546","lan":"13.21462964","Zone":"1","address":"Annai Sivagami Nagar, 9th Street, Ernakulam, Chennai - 57","name":"Valli","mobile":"7845996622","desi":"","ward":"2"},
    {"lat":"80.318261515783","lan":"13.216185481422","Zone":"1","address":"Kattivakkam Highway, Ernavur, Chennai - 57","name":"Poomari","mobile":"8072802584","desi":"","ward":"2"},
    {"lat":"80.311458843927","lan":"13.1894743295561","Zone":"1","address":"J.J.Nagar, Ennore, Chennai - 57.","name":"N.Gujarathi","mobile":"9940693485","desi":"","ward":"3"},
    {"lat":"80.3114389261028","lan":"13.178684956679","Zone":"1","address":"Bharathiyar Nagar 2nd Street, Ernavur, Chennai - 57","name":"Tamilarasi","mobile":"7708456401","desi":"","ward":"5"},
    {"lat":"80.2960519111953","lan":"13.1593893016066","Zone":"1","address":"Manikkam Nagar, Tiruvottiyur, Chennai - 19","name":"P.Senthuri","mobile":"8681946558","desi":"","ward":"7"},
    {"lat":"80.2938433234316","lan":"13.1686286848687","Zone":"1","address":"Gandhi Nagar, Balakrishna Nagar Main Road, Tiruvottiyur, Chennai-19","name":"R.Poongothai","mobile":"8939655723","desi":"","ward":"7"},
    {"lat":"80.2966091406782","lan":"13.1671627530032","Zone":"1","address":"Ramasamy Nagar, Tiruvottiyur, Chennai - 19","name":"G.Maheswari","mobile":"9361381950","desi":"","ward":"7"},
    {"lat":"80.303928055094","lan":"13.1676271883348","Zone":"1","address":"No 1, Periyar Nagar, Tiruvottiyur, Chennai - 19","name":"S.Janaki","mobile":"9940215270","desi":"","ward":"8"},
    {"lat":"80.3042329403691","lan":"13.1631689885376","Zone":"1","address":"Tiruvottiyur Market, Tiruvottiyur, Chennai - 19","name":"Flora","mobile":"9940215270","desi":"","ward":"9"},
    {"lat":"80.2960741618561","lan":"13.1533313004854","Zone":"1","address":"West Mada Street, Kaladipet, Tiruvottiyur, Chennai-600019","name":"Dhanalakshmi","mobile":"9677006725","desi":"","ward":"12"},
    {"lat":"80.29264679741404","lan":"13.150634886484498","Zone":"1","address":"Ennore Express Road, Tiruvottiyur, Chennai - 19","name":"M.Poongodi","mobile":"8754546651","desi":"","ward":"13"},
    {"lat":"80.2945890716858","lan":"13.1444772718282","Zone":"1","address":"No. 78, MGR Road, Sathankadu, Tiruvottiyur, Chennai-19","name":"Jamuna Rani","mobile":"9840358137","desi":"","ward":"13"},
    {"lat":"80.3035020910354","lan":"13.1525041467252","Zone":"1","address":"Ennore Express Road, Tiruvottiyur, Chennai-19","name":"S.Vimala","mobile":"8428991153","desi":"","ward":"14"},
    {"lat":"80.2978444841245","lan":"13.1465809080819","Zone":"1","address":"Tiruvottiyur Highway, Thangal, Tiruvottiyur, Chennai - 19","name":"S.Vasanthi","mobile":"9841960183","desi":"","ward":"14"},
    {"lat":"80.2454775356981","lan":"13.1472331483412","Zone":"3","address":"No. 1, Arul Nagar, MMC, Chennai - 51","name":"Nagalakshmi.R","mobile":"9884489627","desi":"","ward":"27"},
    {"lat":"80.2364750900427","lan":"13.1389801933177","Zone":"3","address":"Muthumariamman Kovil Street, Madhavaram, Chennai - 60","name":"S.Vimala","mobile":"9042342018","desi":"","ward":"28"},
    {"lat":"80.2322462222272","lan":"13.1401276065352","Zone":"3","address":"Kannapiran Kovil Street, Madhavaram, Chennai - 60","name":"B. Subashini","mobile":"8056291492","desi":"","ward":"28"},
    {"lat":"80.2387247409214","lan":"13.1287000651447","Zone":"3","address":"Periyar Nagar, Moolakkadai, Chennai - 110","name":"B. Dhanalakshmi","mobile":"9840230184","desi":"","ward":"28"},
    {"lat":"80.2387247409214","lan":"13.1287000651447","Zone":"3","address":"Nehru Street, Ponniamman Medu, Chennai - 110","name":"Balakumari","mobile":"9710712818","desi":"","ward":"28"},
    {"lat":"80.2253241896711","lan":"13.1302270683509","Zone":"3","address":"Thanikkachalam Nagar, F Block, Ponniammanmedu, Chennai - 110","name":"I. Sheela Mary","mobile":"9940399040","desi":"","ward":"29"},
    {"lat":"80.208601552823","lan":"13.1411421232824","Zone":"3","address":"Vinayagapuram, Kolathur, Chennai - 99","name":"K. Gunasundari","mobile":"9092742731","desi":"","ward":"30"},
    {"lat":"80.206168194538","lan":"13.1351886954359","Zone":"3","address":"Villivakkam Road, New Lakshmipuram, Chennai - 99","name":"Sudha","mobile":"9941926700","desi":"","ward":"30"},
    {"lat":"80.2088037043367","lan":"13.1328054549312","Zone":"3","address":"Gangai Amman Kovil Street, New Lakshmipuram, Chennai - 99","name":"Jeniva Rubavathy","mobile":"8680853763","desi":"","ward":"33"},
    {"lat":"80.20354652","lan":"13.15860008","Zone":"3","address":"Palaiyakkar Kovil Street, Puzhal, Chennai - 66","name":"Sangeetha","mobile":"7358273336","desi":"","ward":"24"},
    {"lat":"80.2056381916826","lan":"13.1569468923217","Zone":"3","address":"Irattaimalai Srinivasan Street, Puzhal, Chennai - 66","name":"Jayakumari","mobile":"8778423091","desi":"","ward":"24"},
    {"lat":"80.2056381916826","lan":"13.1569468923217","Zone":"3","address":"Tiruveedi Amman Kovil Street, Puzhal, Chennai - 66","name":"Shoba","mobile":"9710023055","desi":"","ward":"24"},
    {"lat":"80.1990537893108","lan":"13.1439703595153","Zone":"3","address":"Padmavathi Nagar, Kathirvedu, Puzhal, Chennai - 66","name":"Dhanalakshmi","mobile":"9840899972","desi":"","ward":"31"},
    {"lat":"80.210619489373","lan":"13.153216703225","Zone":"3","address":"MGK Nagar, Kathirvedu, Puzhal, Chennai - 66","name":"N. Christy Jebamani","mobile":"9003122537","desi":"","ward":"31"},
    {"lat":"80.2195419702355","lan":"13.0260289370311","Zone":"10","address":"No.70, Kodambakkam Highway, Saidapet, Chennai-15","name":"Gowri","mobile":"9840429260/9025873939","Ward":"142"},
    {"lat":"80.2221490368988","lan":"13.0187790951667","Zone":"10","address":"No.12 / 28, Abdul Razak Street, Saidapet, Chennai-15","name":"Fathima","mobile":"9940135328","desi":"","ward":"142"},
    {"lat":"80.2155271376613","lan":"13.0207966246141","Zone":"13","address":"Venkatapuram N Block, Saidapet, Chennai - 15","name":"A. Mery Martgreat","mobile":"9094274047","desi":"","ward":"142"},
    {"lat":"80.2117929348039","lan":"13.0261968608451","Zone":"10","address":"No.1, Gangayamman Temple Street, Jafarkanpet, Chennai-83","name":"Malar","mobile":"9790601402","desi":"","ward":"139"},
    {"lat":"80.2199000012562","lan":"13.024999998301","Zone":"10","address":"No.1, Jones Road, Saidapet, Chennai-15","name":"Shivasankari","mobile":"9790734230","desi":"","ward":"140"},
    {"lat":"80.2114174635705","lan":"13.0384467079955","Zone":"10","address":"No.16th Avenue, Ashok Nagar, Chennai-83","name":"Kalaiselvi","mobile":"7358225273","desi":"","ward":"135"},
    {"lat":"80.2098999989637","lan":"13.0434999989369","Zone":"10","address":"90th Street, Ashok Nagar, Chennai-83.","name":"Bhuvaneswari","mobile":"9840642998","desi":"","ward":"135"},
    {"lat":"80.1982828384206","lan":"12.9628912311724","Zone":"14","address":"Madipakkam Bus Stand, Madipakkam, Chennai-91","name":"Anitha","mobile":"9840298101","desi":"","ward":"188"},
    {"lat":"80.1990619974088","lan":"12.9573779181036","Zone":"14","address":"Dr. Ambedkar Road, Mahalakshmi Nagar, Madipakkam, Chennai-91.","name":"Rama.R","mobile":"9750312523","desi":"","ward":"188"},
    {"lat":"80.2102107414002","lan":"12.9529229978474","Zone":"14","address":"3rd Block Mayilai Balaji Nagar, Madipakkam, Pallikaranai, C-100.","name":"S.Chandrapriya","mobile":"9382011144","desi":"","ward":"188"},
    {"lat":"80.1987087837719","lan":"12.9632107952818","Zone":"14","address":"Sunnambu Kulathur Main Road Narayanapuram, Pallikaranai, Chennai - 100","name":"Kasiammal","mobile":"9790701057","desi":"","ward":"188"},
    {"lat":"80.1913999989387","lan":"12.9647999998925","Zone":"14","address":"Lake Street, Ayyappa Nagar Main Road, Madippakkam, Chennai-91","name":"R.Subhashree","mobile":"9962807819","desi":"","ward":"187"},
    {"lat":"80.2287375415157","lan":"13.1136682925258","Zone":"6","address":"No.3 / 19, Temple Road, Jawahar Nagar, Kolathur, Chennai - 82","name":"Malligeshwari","mobile":"9840843631","desi":"","ward":"68"},
    {"lat":"80.2237250466762","lan":"13.114909054553","Zone":"6","address":"No.50- B / 122, Karthikeyan Road, Periyar Nagar, Kolathur, Chennai - 82","name":"Sandhiya","mobile":"9791089105","desi":"","ward":"68"},
    {"lat":"80.1731009671906","lan":"13.0761952500031","Zone":"11","address":"4th Main Road, P.G.N. Meeting, Nolambur, Chennai-37","name":"Bhuvaneshwari","mobile":"7397402891","desi":"","ward":"143"},
    {"lat":"80.1678999990041","lan":"13.0738000015363","Zone":"11","address":"Sriram Nagar, Nolambur","name":"Thamayanthi","mobile":"7677144746","desi":"","ward":"143"},
    {"lat":"80.168645305005","lan":"13.0863209080149","Zone":"7","address":"6th Block, Gangai Amman Kovil Street, Mogappair West, Chennai - 37","name":"Parimala","mobile":"9003250635","desi":"","ward":"91"},
    {"lat":"80.2943458931356","lan":"13.1764888176992","Zone":"1","address":"Tiyagi Satyamurthy Nagar, Tiruvottiyur, Chennai - 19","name":"G.Revathi","mobile":"9941299474","desi":"","ward":"6"},
    {"lat":"80.29246565047035","lan":"13.139879985901583","Zone":"2","address":"Burma Nagar 18th Street, Sadayan Kuppam, Chennai - 103","name":"Radha","mobile":"9840182079","desi":"","ward":"39"},
    {"lat":"80.2956163194799","lan":"13.135281156692","Zone":"4","address":"Vasar Varathappa Street, New Washermenpet, Chennai-81","name":"R. Kanchana Devi","mobile":"9094856992","desi":"","ward":"39"},
    {"lat":"80.295863764856","lan":"13.1375612055341","Zone":"4","address":"Kannupillai Street, New Washermenpet, Chennai.81","name":"B. Vijayalakshmi","mobile":"6374737837","desi":"","ward":"39"},
    {"lat":"80.2921486954359","lan":"13.137089328183","Zone":"4","address":"Mangammal Garden 6th Street, New Washermenpet, Chennai-81","name":"Sujatha","mobile":"8637697985","desi":"","ward":"39"},
    {"lat":"80.2907868524785","lan":"13.1281008044327","Zone":"4","address":"Power Kuppam, 3rd Street, Rayapuram, Chennai-13","name":"K. Nirmala","mobile":"9080060437","desi":"","ward":"43"},
    {"lat":"80.2902086379002","lan":"13.1228291020072","Zone":"5","address":"No. 96, Thandavaraya Gramini Street, Tondaiarpet, Chennai -81.","name":"Goamathi","mobile":"7418562332","desi":"","ward":"43"},
    {"lat":"80.2410945165164","lan":"13.0569504535022","Zone":"9","address":"No.2A, School Road, Nungambakkam, Chennai-34","name":"Rajina Mary","mobile":"9566135793","desi":"","ward":"110"},
    {"lat":"80.2415754175729","lan":"13.0636520174778","Zone":"9","address":"No. 54/22, Kutty Street, Nungambakkam, Chennai-34","name":"Revathi","mobile":"7904231709","desi":"","ward":"110"},
    {"lat":"80.2416492774191","lan":"13.0636753676339","Zone":"9","address":"No.86, Valluvar Kottam Highway, Nungambakkam, Chennai-34","name":"Selvarani","mobile":"9080184505","desi":"","ward":"110"},
    {"lat":"80.2000687426416","lan":"12.9982039123493","Zone":"12","address":"Raja Street, 1st Lane, Alandur, Chennai - 16","name":"Maliga","mobile":"7394269456","desi":"","ward":"161"},
    {"lat":"80.2054916956895","lan":"12.9984285486932","Zone":"12","address":"Velachery Road, Alandur, Chennai - 16","name":"Maliga","mobile":"7394269456","desi":"","ward":"161"},
    {"lat":"80.2034387299454","lan":"13.0019094942219","Zone":"10","address":"No.1, Appavu Pillaiyar Temple Junction, West Jafarkanpet Chennai-83","name":"Sarasu","mobile":"7299330006","desi":"","ward":"160"},
    {"lat":"80.2030000021126","lan":"13.0045000024489","Zone":"12","address":"New Street, Alandur, Chennai-16","name":"S.Nithya","mobile":"9094458637","desi":"","ward":"160"},
    {"lat":"80.2083778677249","lan":"13.0037660720181","Zone":"12","address":"M.K.N. Road Maduvankarai Bridge, Alandur, Chennai - 16","name":"Banumathi","mobile":"9940424826","desi":"","ward":"160"},
    {"lat":"80.2387636656283","lan":"12.9278702465416","Zone":"15","address":"2nd Main Road, Kannagi Nagar, Chennai - 97","name":"M.Elavarasi","mobile":"9360557966","desi":"","ward":"196"},
    {"lat":"80.258146233127","lan":"13.1511784951107","Zone":"2","address":"Perumal Kovil Street, Baliji Palayam, Chinnak Sekkadu, Chennai - 68","name":"Selvi","mobile":"8682976938","desi":"","ward":"22"},
    {"lat":"80.2144256909223","lan":"13.1764272939617","Zone":"2","address":"Chinnathoppu, Vada Perumbakkam, Chennai - 60.","name":"Lalitha","mobile":"7200611216","desi":"","ward":"17"},
    {"lat":"80.2462622324819","lan":"13.1736968183267","Zone":"2","address":"MMDA 4th Cross Street, Mathur Chennai-68","name":"Bharathi","mobile":"9952071436","desi":"","ward":"19"},
    {"lat":"80.2332651316336","lan":"12.9340941105846","Zone":"15","address":"Gangaiamman Kovil Street, OMR, PTC, Chennai - 97","name":"S. Vijaya","mobile":"9176871858","desi":"","ward":"195"},
    {"lat":"80.236979128596","lan":"12.9438086810517","Zone":"15","address":"Pillaiyar Temple Street, OMR, Thoraipakkam, Chennai - 97","name":"S. Vijaya","mobile":"9176871858","desi":"","ward":"195"},
    {"lat":"80.2308302418493","lan":"12.9268427172938","Zone":"15","address":"OMR Main Road, Okkiyam Thoraipakkam, Chennai-97.","name":"M.Elavarasi","mobile":"9360557966","desi":"","ward":"195"},
    {"lat":"80.2442264717719","lan":"13.0165676437317","Zone":"13","address":"New Street, Kottur, Chennai - 85","name":"Devi A","mobile":"9710955757","desi":"","ward":"170"},
    {"lat":"80.2430999983089","lan":"13.0245999993607","Zone":"13","address":"H Block Chitra Nagar, Kotturpuram - Chennai - 85","name":"K. A Rajakumari","mobile":"7448800551","desi":"","ward":"170"},
    {"lat":"80.2351272507534","lan":"13.0485186006742","Zone":"9","address":"Sarathi Street, (Sharma Park), Thiyagaraya Nagar, Chennai-17","name":"R.Lakshmi","mobile":"9551957878","desi":"","ward":"113"},
    {"lat":"80.2249100863377","lan":"13.0637154978227","Zone":"9","address":"No.19, Shanmuganar Road, Choolaimedu, Chennai-94","name":"Uma","mobile":"9500171141","desi":"","ward":"109"},
    {"lat":"80.2300325791532","lan":"13.0672938300335","Zone":"9","address":"West Namachivaya Puram, Choolaimedu, Chennai-94","name":"Bhavni","mobile":"7397337107","desi":"","ward":"109"},
    {"lat":"80.2460017484859","lan":"13.0397848741392","Zone":"9","address":"Thiru.Vi.Ka Residence, Thiyagaraya Nagar, Chennai-17","name":"Christina Mary","mobile":"8695426263","desi":"","ward":"117"},
    {"lat":"80.2383782391959","lan":"13.049508658554","Zone":"9","address":"Ramakamathupuram, Thiyagaraya Nagar, Chennai-17","name":"Indra","mobile":"9677212857","desi":"","ward":"117"},
    {"lat":"80.2527335646251","lan":"13.0549397106079","Zone":"9","address":"Model School Road, Thousand Lights, Chennai-06","name":"Kamatchi","mobile":"9500444373","desi":"","ward":"111"},
    {"lat":"80.2514548144608","lan":"13.062378501635","Zone":"9","address":"Wallace Garden 1st Street Gerims Road, Thousand Lights, Chennai-06","name":"Sathyapriya","mobile":"9087715590","desi":"","ward":"111"},
    {"lat":"80.2045008211705","lan":"12.9926056016726","Zone":"12","address":"Balakrishnapuram Main Road, Adambakkam, Chennai-88","name":"S.Parimala Sundari","mobile":"9841042358","desi":"","ward":"163"},
    {"lat":"80.1986156207665","lan":"12.991762629002","Zone":"12","address":"Medavakkam High road, Adambakkam, Chennai","name":"S.Parimala Sundari","mobile":"9841042358","desi":"","ward":"163"},
    {"lat":"80.2780403025972","lan":"13.1391777872586","Zone":"4","address":"New Vinoba Nagar 3rd Street, Tondairpet, Chennai.81","name":"G. Geetha","mobile":"9962909594","desi":"","ward":"38"},
    {"lat":"80.3288768101885","lan":"13.2291673479748","Zone":"1","address":"Puyal kapagam, Thalankuppam, Ennore, Chennai - 57.","name":"J.K.Leela","mobile":"9444877025","desi":"","ward":"1"},
    {"lat":"80.2229104032616","lan":"13.1433905818709","Zone":"3","address":"CMDA Truck Terminal, Madhavaram, Chennai - 60","name":"R.Umadevi","mobile":"8667573743","desi":"","ward":"25"},
    {"lat":"80.2327153639133","lan":"13.1448770896347","Zone":"3","address":"Sivashakthi Nagar, Madhavaram, Chennai - 60","name":"Sangeetha","mobile":"8838360368","desi":"","ward":"25"},
    {"lat":"80.2284927227873","lan":"13.1527499022152","Zone":"3","address":"No. 1, Perumal Kovil Street, Madhavaram, Chennai - 60","name":"S.Vijaya","mobile":"8925788031","desi":"","ward":"25"},
    {"lat":"80.1811336382717","lan":"13.1406863056718","Zone":"2","address":"Perumal Kovil Street, Kozapur, Chennai-60","name":"Saritha","mobile":"7305207137","desi":"","ward":"32"},
    {"lat":"80.2000558411546","lan":"13.1521384376532","Zone":"3","address":"EMS Street, Kathirvedu, Puzhal, Chennai - 66","name":"Umamaeshwari.P","mobile":"9444855469","desi":"","ward":"32"},
    {"lat":"80.1858232609142","lan":"13.1452291497037","Zone":"3","address":"Mathura Mettur, Soorapet, Chennai - 66","name":"Shanthi","mobile":"9962384638","desi":"","ward":"32"},
    {"lat":"80.30723764384996","lan":"13.19011208914384","Zone":"1","address":"Netaji Nagar, Ernakulam, Chennai - 57","name":"R.Sathiya","mobile":"9500172617","desi":"","ward":"4"},
    {"lat":"80.3038996296527","lan":"13.189595938902","Zone":"1","address":"Thiruveediyamman kovil Street, Ernavur, Chennai - 57","name":"Bharathi.G","mobile":"7010882723","desi":"","ward":"4"},
    {"lat":"80.2981358777422","lan":"13.1798579182875","Zone":"1","address":"Jothi Nagar 10th Street, Tiruvottiyur, Chennai-19","name":"D.Mary Sonia","mobile":"9840238794","desi":"","ward":"4"},
    {"lat":"80.2156209613747","lan":"13.1290056304512","Zone":"6","address":"No. 96, Anjugam Nagar 18th Street, Kolathur Chennai-99","name":"Sumithra","mobile":"8939428599","desi":"","ward":"66"},
    {"lat":"80.2156209613747","lan":"13.1290056304512","Zone":"6","address":"No.15, United Colony Redhills Road, Kolathur, Chennai-99","name":"Jayanthi","mobile":"9791923261","desi":"","ward":"66"},
    {"lat":"80.14906189644647","lan":"13.05377144849903","Zone":"11","address":"Chettiar Agaram Main Road, Pillaiyar Kovil Street, Vanaram, Chennai","name":"Latha","mobile":"9884263979","desi":"","ward":"150"},
    {"lat":"80.22963715267281","lan":"12.853085315403261","Zone":"15","address":"Ponniamman Temple Street, OMR Main Road, Chennai - 119","name":"S. Bakkiyalakshmi","mobile":"6369967052","desi":"","ward":"200"},
    {"lat":"80.29314723346215","lan":"13.129644026256734","Zone":"4","address":"CDH Hospital,  Tondairpet, Chennai-81","name":"C. Saritha","mobile":"7395922456","desi":"","ward":"43"}
    ]}