[
    {
      "Zone": "1",
      "address": "Dn.6 - Sathiya moorthy Nagar",
      "name": "Mohan",
      "mobile": "7299540438",
      "lan": "13.18",
      "lat": "80.29"
    },
    {
      "Zone": "1",
      "address": "Dn.7 - Vetri Vinayagar Nagar",
      "mobile": "7358672544",
      "name": "Sencil Rao",
      "lan": "13.16",
      "lat": "80.29"
    },
    {
      "Zone": "2",
      "address": "",
      "mobile": "",
      "name": "",
      "lan": "",
      "lat": ""
    },
    {
      "Zone": "3",
      "address": "Dn.30",
      "mobile": "9094347283",
      "name": "D. Narendran",
      "lan": "",
      "lat": ""
    },
    {
      "Zone": "3",
      "address": "Dn.23",
      "mobile": "9600184617",
      "name": "Sathish",
      "lan": "13.17",
      "lat": "80.21"
    },
    {
      "Zone": "4",
      "address": "Dn.37 - MGR nagar",
      "mobile": "7200078578",
      "name": "Babu",
      "lan": "13.13",
      "lat": "80.27"
    },
    {
      "Zone": "4",
      "address": "Dn.41 - Annai sathya nagar",
      "mobile": "7299806531",
      "name": "Ramesh",
      "lan": "13.13",
      "lat": "80.27"
    },
    {
      "Zone": "5",
      "address": "",
      "mobile": "",
      "name": "",
      "lan": "",
      "lat": ""
    },
    {
      "Zone": "6",
      "address": "Dn.72 - VOC Nagar Community Centre",
      "mobile": "9884779001",
      "name": "Venkatesan",
      "lan": "13.10396596",
      "lat": "80.26349027"
    },
    {
      "Zone": "6",
      "address": "Dn.73 - New Farrence Road",
      "mobile": "6380105557",
      "name": "Daniel",
      "lan": "13.10",
      "lat": "80.26"
    },
    {
      "Zone": "6",
      "address": "Dn.76 - Strahans Road",
      "mobile": "9840355460",
      "name": "Gopi",
      "lan": "13.10",
      "lat": "80.26"
    },
    {
      "Zone": "7",
      "address": "",
      "mobile": "",
      "name": "",
      "lan": "",
      "lat": ""
    },
    {
      "Zone": "8",
      "address": "",
      "mobile": "",
      "name": "",
      "lan": "",
      "lat": ""
    },
    {
      "Zone": "9",
      "address": "",
      "mobile": "",
      "name": "",
      "lan": "",
      "lat": ""
    },
    {
      "Zone": "10",
      "address": "",
      "mobile": "",
      "name": "",
      "lan": "",
      "lat": ""
    },
    {
      "Zone": "11",
      "address": "",
      "mobile": "",
      "name": "",
      "lan": "",
      "lat": ""
    },
    {
      "Zone": "12",
      "address": "Dn.156",
      "mobile": "9841893509",
      "name": "Babu",
      "lan": "13.02",
      "lat": "80.17"
    },
    {
      "Zone": "12",
      "address": "Dn.156",
      "mobile": "8220209446",
      "name": "Srinivasan",
      "lan": "",
      "lat": ""
    },
    {
      "Zone": "13",
      "address": "",
      "mobile": "",
      "name": "",
      "lan": "",
      "lat": ""
    },
    {
      "Zone": "14",
      "address": "Dn.188 - Ram Nagar 16th street",
      "mobile": "9940461256",
      "name": "Maran",
      "lan": "12.96",
      "lat": "80.21"
    },
    {
      "Zone": "14",
      "address": "Dn.188 - Bazaar Road",
      "mobile": "8667850410",
      "name": "Babu",
      "lan": "13.02220544",
      "lat": "80.2246592"
    },
    {
      "Zone": "15",
      "address": "Dn.193 - Sai Nagar, Thoraipakkam",
      "mobile": "9150856659",
      "name": "R. Siva",
      "lan": "80.24",
      "lat": "12.95"
    },
    {
      "Zone": "15",
      "address": "Dn.195 - Chandrasekaran Avenue",
      "mobile": "9094721285",
      "name": "J. Moses",
      "lan": "12.93479083",
      "lat": "80.23143822"
    }
  ]