{"data": [
    {"lan":"80.21463912","lat":"13.17643254","Zone":"2","ward":"17","name":"S G LOGANATHAN","Hall_Area":"GF - 2046FF - 2046","Land_Mark":"Chinnathoppu","address":"Vadaperumbakkam chinnathoppu Manali, Ch -68","mobile":"9952936676"},
    {"lan":"80.26042885","lat":"13.15721037","Zone":"2","ward":"22","name":"S G LOGANATHAN","Hall_Area":"GF - 2905","Land_Mark":"Chinna sekkadu","address":"Devarajan Street, Manali Chinna sekkadu, Ch - 68","mobile":"9952936676"},
    {"lan":"80.20715633","lat":"13.15861567","Zone":"3","ward":"24","name":"S S RANGANATHAN","Hall_Area":"GF - 1194","Land_Mark":"Puzhal","address":"Thiruveethi Amman Koil Street, Puzhal Chennai - 60","mobile":"9445190083"},
    {"lan":"80.18035544","lat":"13.1406769","Zone":"3","ward":"32","name":"S S RANGANATHAN","Hall_Area":"GF -2371","Land_Mark":"Soorapattu","address":"Shanmugapuram,Soorapattu, Chennai -60","mobile":"9445190083"},
    {"lan":"80.29263833","lat":"13.1368014","Zone":"4","ward":"40","name":"C.K. SEKAR","Hall_Area":"GF - 2720FF - 2720","Land_Mark":"Tondiarpet","address":"Mangammal Thottam, Tondiarpet, Chennai 81","mobile":"9499933136"},
    {"lan":"80.29177744","lat":"13.12350232","Zone":"4","ward":"43","name":"C.K. SEKAR","Hall_Area":"GF - 5619F Floor - 6275 SF - 6275","Land_Mark":"Tondiarpet","address":"Kummalamman Koil Street, Tondiarpet, Chennai 81","mobile":"9499933136"},
    {"lan":"80.2780193","lat":"13.11267617","Zone":"4","ward":"48","name":"C.K. SEKAR","Hall_Area":"GF- 1734FF - 1812","Land_Mark":"old washermanpet","address":"Parthasarathy Nagar old washermanpet Chennai- 21","mobile":"9499933136"},
    {"lan":"80.28221568","lat":"13.10036008","Zone":"5","ward":"55","name":"V.MURUGESAN","Hall_Area":"GF - 4046F Floor - 4046 SF - 2802","Land_Mark":"Seven Wells","address":"Saint Savier Street, Seven Wells, Chennai -1","mobile":"9789033020"},
    {"lan":"80.2756093","lat":"13.09521901","Zone":"5","ward":"57","name":"V.MURUGESAN","Hall_Area":"GF - 4916","Land_Mark":"Wall tax Road","address":"Annapillai Street, Wall tax Road, Sowcarpet, Chennai-79","mobile":"9789033020"},
    {"lan":"80.26998898","lat":"13.09040678","Zone":"5","ward":"58","name":"V.MURUGESAN","Hall_Area":"GF - 5112FF - 5056","Land_Mark":"Moore market","address":"Sydenhams Road, Kannappar Thidal, Moore market, Chennai - 3","mobile":"9789033020"},
    {"lan":"80.27935061","lat":"13.07852541","Zone":"5","ward":"59","name":"V.MURUGESAN","Hall_Area":"GF -1500FF - 1500","Land_Mark":"Pallavan salai","address":"Sathiyavanimuthu Nagar,Pallavan salai, Chennai - 2","mobile":"9789033020"},
    {"lan":"80.26490742","lat":"13.0699288","Zone":"5","ward":"63","name":"V.MURUGESAN","Hall_Area":"GF - 3495FF - 3011","Land_Mark":", Pudupet","address":"Veerapathiran Street, Pudupet, Chennai- 2","mobile":"9789033020"},
    {"lan":"80.23198908","lat":"13.11854712","Zone":"6","ward":"67","name":"P.LAKSHMANA KUMAR","Hall_Area":"GF - 8033FF - 7716SF - 7274TF- 1421","Land_Mark":"Sembium","address":"SRP Koil street (North), Sembium, Chennai -11","mobile":"9444665777"},
    {"lan":"80.25416036","lat":"13.09406145","Zone":"6","ward":"75","name":"P.LAKSHMANA KUMAR","Hall_Area":"GF - 5775FF - 5324","Land_Mark":"Purasaiwalkam","address":"Venkatathiri Street, O.No.51/111 Purasaiwalkam, Chennai - 7","mobile":"9444665777"},
    {"lan":"80.2612","lat":"13.1044","Zone":"6","ward":"72","name":"P.LAKSHMANA KUMAR","Hall_Area":"GF-5324FF - 5324","Land_Mark":"Pulianthope","address":"VOC Nagar Ist street Pulianthope Chennai - 12","mobile":"9444665777"},
    {"lan":"80.15836344","lat":"13.03691085","Zone":"6","ward":"78","name":"P.LAKSHMANA KUMAR","Hall_Area":"GF - 6724FF -5083SF - 5300TF -1728","Land_Mark":"Kuyapettai","address":"Sachithanandam Street, Kuyapettai, Chennai - 12","mobile":"9444665777"},
    {"lan":"80.17912424","lat":"13.07582101","Zone":"7","ward":"91","name":"M.RAJKUMAR","Hall_Area":"GF-2479FF - 2325","Land_Mark":"Mugappair","address":"Mugappair 3rd main Road, Mugappair, Chennai -37","mobile":"9840254237"},
    {"lan":"80.22009947","lat":"13.08264743","Zone":"8","ward":"101","name":"K.ANNADURAI","Hall_Area":"GF - 19890Messanine Floor -  4286 FF - 19890","Land_Mark":"NEAR CREASANT PLAY GROUND","address":"Shenoy Nagar Communiy Hall ( Auditorium ) Full Mandapam (Amma Arangam )","mobile":"9445190088"},
    {"lan":"80.2237","lat":"13.0769","Zone":"8","ward":"101","name":"K.ANNADURAI","Hall_Area":"GF - 930F Floor - 756 SF - 756","Land_Mark":"GOVT. GIRLS HR. SECONDARY SCHOOL","address":"Gajalakshmi Colony, Near Pulla Avenue Corpn. Zonal Office - 8, Aminjikarai, Ch -30","mobile":"9445190088"},
    {"lan":"80.23032697","lat":"13.07957254","Zone":"8","ward":"100","name":"K.ANNADURAI","Hall_Area":"GF-3382FF - 2929","Land_Mark":"OPP. LIONS CLUB","address":"Thandavarayan pillai chathiram main Road, shenoy Nagar, Chennai -30","mobile":"9445190088"},
    {"lan":"80.2417163","lat":"13.08288371","Zone":"8","ward":"100","name":"K.ANNADURAI","Hall_Area":"GF-5619FF - 6275SF - 6275","Land_Mark":"Kilpauk","address":"Kummalamman Koil Street, Kilpauk, Chennai 10","mobile":"9445190088"},
    {"lan":"80.2142","lat":"13.0662","Zone":"8","ward":"105","name":"K.ANNADURAI","Hall_Area":"GF-4195FF - 4009 SF - 3930","Land_Mark":"MMDA MARKET","address":"MMDA colony main Road Arumbakkam, Chennai -106","mobile":"9445190088"},
    {"lan":"80.2313","lat":"13.0723","Zone":"8","ward":"108","name":"K.ANNADURAI","Hall_Area":"GF-8778 FF - 9270","Land_Mark":"Near Pachiyappan College","address":"Venkatachalapathy Street Junction, Harrington Road, Near Pachiyappan College","mobile":"9445190088"},
    {"lan":"80.22208082","lat":"13.06514437","Zone":"8","ward":"108","name":"K.ANNADURAI","Hall_Area":"GF - 6000FF - 5122","Land_Mark":"NEAR FOOD CORPORATION OF INDIA","address":"Sathiyamurthy Salai, Chetpet, Chennai -31","mobile":"9445190088"},
    {"lan":"80.23112297","lat":"13.06586661","Zone":"9","ward":"109","name":"M.GOVINDARAJ","Hall_Area":"FF - 1223 SF - 1223","Land_Mark":"Choolaimedu","address":"No.1Thiruvengadapuram,1st street, Choolaimedu, Chennai-94","mobile":"9962480316"},
    {"lan":"80.25236049","lat":"13.05690613","Zone":"9","ward":"111","name":"M.GOVINDARAJ","Hall_Area":"GF - 3884Messanine - 610FF - 3236","Land_Mark":"Thousand light metro","address":"Model School Road, Thousand light, Chennai-6","mobile":"9962480316"},
    {"lan":"80.27929119","lat":"13.05606865","Zone":"9","ward":"116","name":"M.GOVINDARAJ","Hall_Area":"GF-3774 FF - 3774 SF - 3774","Land_Mark":"KGH HOSPITAL","address":"Venkatarangam Pillai Street, Triplicane, Chennai -5","mobile":"9962480316"},
    {"lan":"80.24562659","lat":"13.04055566","Zone":"9","ward":"117","name":"M.GOVINDARAJ","Hall_Area":"GF - 9317FF - 9317","Land_Mark":"GRT HOTEL","address":"Giriyappa Road, T.Nagar, Chennai -17","mobile":"9962480316"},
    {"lan":"80.2503421","lat":"13.04761289","Zone":"0","ward":"118","name":"M.GOVINDARAJ","Hall_Area":"GF - 2546FF - 2546","Land_Mark":"DMS METRO BACKSIDE","address":"Muthiah Street, Teynampet (DMS Backside), Chennai -18","mobile":"9962480316"},
    {"lan":"80.275","lat":"13.0495","Zone":"9","ward":"120","name":"M.GOVINDARAJ","Hall_Area":"GF - 1152FF - 1152","Land_Mark":"THEERTHABALEESWARAR TEMPLE","address":"Ram Nagar, Krishnampet, Triplicane,Chennai -5","mobile":"9962480316"},
    {"lan":"80.25023184","lat":"13.03533897","Zone":"0","ward":"122","name":"M.GOVINDARAJ","Hall_Area":"GF - 3821Messanine - 1770FF - 3472","Land_Mark":"SIET COLLEGE","address":"K.B.Dhasan Salai, Teynampet, Chennai -18","mobile":"9962480316"},
    {"lan":"80.2747","lat":"13.0412","Zone":"9","ward":"125","name":"M.GOVINDARAJ","Hall_Area":"GF - 2772FF - 2358","Land_Mark":"CITY CENTRE","address":"Karaneeswarar pagoda street Mylapore, Ch -4","mobile":"9962480316"},
    {"lan":"80.25942582","lat":"13.0538553","Zone":"9","ward":"118","name":"M.GOVINDARAJ","Hall_Area":"GF -5000","Land_Mark":"NEW COLLEGE","address":"S.P.Sanathi Street, Royapet, Chennai -14","mobile":"9962480316"},
    {"lan":"80.19695725","lat":"13.05307012","Zone":"10","ward":"128","name":"P. KARUNAKARAN","Hall_Area":"GF - 5217 FF - 5217","Land_Mark":"SALIGRAMAM BUS STOP","address":"KamarajSalai,Virugambakkam,Ch -92","mobile":"98414590164"},
    {"lan":"80.2193444","lat":"13.0472895","Zone":"10","ward":"136","name":"P. KARUNAKARAN","Hall_Area":"G-2450FF-2750SF-2750","Land_Mark":"K.K. NAGAR","address":"80 feet road, KK nagar, chennai -78","mobile":"98414590164"},
    {"lan":"80.2193444","lat":"13.0472895","Zone":"10","ward":"132","name":"P. KARUNAKARAN","Hall_Area":"GF-6800FF - 6626 SF - 4434","Land_Mark":"Kodambakkam","address":"Dr.Ambedkar Road, Kodambakkam, Chennai -24","mobile":"98414590164"},
    {"lan":"80.23456309","lat":"13.04176928","Zone":"10","ward":"133","name":"P. KARUNAKARAN","Hall_Area":"GF - 7812Messanine Floor - 1769 FF - 2653","Land_Mark":"PANAGAL PARK","address":"Sir P.Theyagaraya Hall\nG.N.Chetty Road,T.Nagar (AUDITORIUM)","mobile":"98414590164"},
    {"lan":"80.21158107","lat":"13.02799883","Zone":"10","ward":"139","name":"P. KARUNAKARAN","Hall_Area":"GF - 4305 FF - 4137","Land_Mark":"Jafarkhanpet","address":"Jafarganpet, Vadivel street, Chennai -95","mobile":"98414590164"},
    {"lan":"80.23266712","lat":"13.0269098","Zone":"10","ward":"141","name":"P. KARUNAKARAN","Hall_Area":"GF - 3283 FF - 3283","Land_Mark":"OPP. To YMCA","address":"3rd main Road CIT Nagar, Chennai -35","mobile":"98414590164"},
    {"lan":"80.15631772","lat":"13.04003339","Zone":"11","ward":"150","name":"R.DILLI","Hall_Area":"GF -1500FF - 1318","Land_Mark":"Near Karambakkam Bus Stop","address":"Karambakkam, Porur, Chennai -116","mobile":"9940519348"},
    {"lan":"80.16142331","lat":"13.01871967","Zone":"12","ward":"156","name":"K.GOPI","Hall_Area":"GF - 3500","Land_Mark":"Mugalivakkam","address":"Selvalakshmi garden street, Mugalivakkam, Ch -116","mobile":"9940519348"},
    {"lan":"80.15004567925452","lat":"13.021911003101021","Zone":"12","ward":"157","name":"K.GOPI","Hall_Area":"FF- 5285","Land_Mark":"Manappakkam","address":"Gerugambakkam salai Manappakkam, Ch -116","mobile":"9940519348"},
    {"lan":"80.20276245","lat":"12.98781813","Zone":"12","ward":"164","name":"K.GOPI","Hall_Area":"GF - 3935FF -858","Land_Mark":"Alandur","address":"New Colony, Alandur, Ch -16","mobile":"9940519348"},
    {"lan":"80.17750622","lat":"12.97320866","Zone":"12","ward":"166","name":"K.GOPI","Hall_Area":"GF - 2150FF - 1660","Land_Mark":"Alandur","address":"Nehru Colony, Alandhur, Ch -16","mobile":"9940519348"},
    {"lan":"80.2113","lat":"13.0038","Zone":"13","ward":"174","name":"N. GANESHKUMAR","Hall_Area":"GF-3971 FF - 3674","Land_Mark":"Maduvinkarai","address":"ChakrapaniStreet, Maduvinkarai Guindy, Ch -32","mobile":"7530028858"},
    {"lan":"80.22826045","lat":"12.986863","Zone":"13","ward":"179","name":"N. GANESHKUMAR","Hall_Area":"GF-5896 FF - 4854","Land_Mark":"velacherry","address":"Seva Nagar Ist street velacherry Ch -42","mobile":"7530028858"},
    {"lan":"80.26548387","lat":"12.96987465","Zone":"14","ward":"181","name":"C.RAMESHKUMAR","Hall_Area":"GF - 2935","Land_Mark":"Kottivakkam","address":"Kuppam Salai, Kottivakkam, Ch -41","mobile":"8637685232"},
    {"lan":"80.2105","lat":"12.9522","Zone":"14","ward":"188","name":"C.RAMESHKUMAR","Hall_Area":"GF - 2575","Land_Mark":"Madipakkam","address":"Myilai Balaji Nagar, Madipakkam, Ch -91","mobile":"8637685232"},
    {"lan":"80.2086","lat":"12.939","Zone":"14","ward":"189","name":"C.RAMESHKUMAR","Hall_Area":"GF - 3283","Land_Mark":"Pallikaranai","address":"IIT colony 3rd main Road, Pallikaranai, Ch -100","mobile":"8637685232"},
    {"lan":"80.23261772","lat":"12.88995373","Zone":"15","ward":"197","name":"UGAMANI","Hall_Area":"GF-4605 FF - 4605","Land_Mark":"Karapakkam","address":"Gangaiamman Koil Street, Karapakkam, Ch -97","mobile":"9445190095"},
    {"lan":"80.228","lat":"12.8588","Zone":"15","ward":"200","name":"UGAMANI","Hall_Area":"GF - 3200","Land_Mark":"Semmancherry","address":"Pazhathotta Salai, Semmancherry, Ch -119","mobile":"9445190095"}
    ]}