{"data": [
    {"lan":80.28910986,"lat":"13.16334161","Zone":"1","ward":"7","address":"VETRIVINAYAGAR 2ND STREET","Motor_Type":"100HP-Diesel Pump","region":"North","LLAT":13.16334161,"LONG":80.28910986},
    {"lan":80.29903778,"lat":"13.16559278","Zone":"1","ward":"7","address":"Anna Nagar 1st Street","Motor_Type":"TRACTOR MOTOR-25HP Diesel ENGINE","region":"North","LLAT":13.16559278,"LONG":80.29903778},
    {"lan":80.2697805,"lat":"13.14967788","Zone":"1","ward":"7","address":"Periyar Nagar 2 nd Cross Street","Motor_Type":"TRACTOR MOTOR-25HP Diesel ENGINE","region":"North","LLAT":13.14967788,"LONG":80.2697805},
    {"lan":80.29094241,"lat":"13.17446184","Zone":"1","ward":"7","address":"Buckingham Canal Road","Motor_Type":"20hp 1Nos &18hp1&15hp1&50hp 2nos(Permenent)","region":"North","LLAT":13.17446184,"LONG":80.29094241},
    {"lan":80.29303279,"lat":"13.15180336","Zone":"1","ward":"12","address":"Balakrishna Naidu Colony 3rd Street","Motor_Type":"Railway Culvert","region":"North","LLAT":13.15180336,"LONG":80.29303279},
    {"lan":80.29497956,"lat":"13.15330948","Zone":"1","ward":"12","address":"Balakrishna Naidu Colony 1st Street","Motor_Type":"5hp Petrol Motor Portable","region":"North","LLAT":13.15330948,"LONG":80.29497956},
    {"lan":80.29462413,"lat":"13.15372645","Zone":"1","ward":"12","address":"Balakrishna Naidu Colony 1st Street","Motor_Type":"5hp Petrol Motor Portable","region":"North","LLAT":13.15372645,"LONG":80.29462413},
    {"lan":80.29170405,"lat":"13.14430747","Zone":"1","ward":"13","address":"SATHANGADU OTTRAIVADAI STREET","Motor_Type":"5hp Petrol Motor Portable","region":"North","LLAT":13.14430747,"LONG":80.29170405},
    {"lan":80.29199734,"lat":"13.14460971","Zone":"1","ward":"13","address":"UDAIYASURIYAN 1ST STREET","Motor_Type":"5hp Petrol Motor Portable","region":"North","LLAT":13.14460971,"LONG":80.29199734},
    {"lan":80.29163243,"lat":"13.14489328","Zone":"1","ward":"13","address":"UDAYASURIYAN LINK ROAD","Motor_Type":"5hp Petrol Motor Portable","region":"North","LLAT":13.14489328,"LONG":80.29163243},
    {"lan":80.29254494,"lat":"13.14493419","Zone":"1","ward":"13","address":"UDAIYASURIYAN 2ND STREET","Motor_Type":"5hp Petrol Motor Portable","region":"North","LLAT":13.14493419,"LONG":80.29254494},
    {"lan":80.29111075,"lat":"13.14525078","Zone":"1","ward":"13","address":"SATHANGADU GANDHI NAGAR LINK ROAD","Motor_Type":"5hp Petrol Motor Portable","region":"North","LLAT":13.14525078,"LONG":80.29111075},
    {"lan":80.2911392,"lat":"13.14561927","Zone":"1","ward":"13","address":"SATHANGADU GANDHI NAGAR 1ST STREET","Motor_Type":"5hp Petrol Motor Portable","region":"North","LLAT":13.14561927,"LONG":80.2911392},
    {"lan":80.29124133,"lat":"13.14589767","Zone":"1","ward":"13","address":"SATHANGADU GANDHI NAGAR 2ND STREET","Motor_Type":"5hp Petrol Motor Portable","region":"North","LLAT":13.14589767,"LONG":80.29124133},
    {"lan":80.29087578,"lat":"13.1456804","Zone":"1","ward":"13","address":"Sathangadu Gandhi Nagar 1st Lane","Motor_Type":"5hp Petrol Motor Portable","region":"North","LLAT":13.1456804,"LONG":80.29087578},
    {"lan":80.29089742,"lat":"13.14596658","Zone":"1","ward":"13","address":"SATHANGADU GANDHI NAGAR 2ND LANE","Motor_Type":"5hp Petrol Motor Portable","region":"North","LLAT":13.14596658,"LONG":80.29089742},
    {"lan":80.29093228,"lat":"13.1461528","Zone":"1","ward":"13","address":"SATHANGADU GANDHINAGAR 3RD LANE","Motor_Type":"5hp Petrol Motor Portable","region":"North","LLAT":13.1461528,"LONG":80.29093228},
    {"lan":80.29104076,"lat":"13.14646148","Zone":"1","ward":"13","address":"SATHANGADU GANDHI NAGAR 4TH LANE","Motor_Type":"5hp Petrol Motor Portable","region":"North","LLAT":13.14646148,"LONG":80.29104076},
    {"lan":80.29126929,"lat":"13.14653029","Zone":"1","ward":"13","address":"SATHANGADU GANDHI NAGAR MAIN ROAD","Motor_Type":"5hp Petrol Motor Portable","region":"North","LLAT":13.14653029,"LONG":80.29126929},
    {"lan":80.29158973,"lat":"13.14639266","Zone":"1","ward":"13","address":"SATHANGADU GANDHI NAGAR 4TH STREET","Motor_Type":"5hp Petrol Motor Portable","region":"North","LLAT":13.14639266,"LONG":80.29158973},
    {"lan":80.2915699,"lat":"13.14611336","Zone":"1","ward":"13","address":"SATHANGADU GANDHI NAGAR 3RD STREET","Motor_Type":"5hp Petrol Motor Portable","region":"North","LLAT":13.14611336,"LONG":80.2915699},
    {"lan":80.29172199,"lat":"13.17612652","Zone":"1","ward":"6","address":"THIYAGI SATHIYAMOORTHY 9TH STREET","Motor_Type":"Diseal Motor","region":"North","LLAT":13.17612652,"LONG":80.29172199},
    {"lan":80.32688182,"lat":"13.22268622","Zone":"1","ward":"1","address":"SVM NAGAR BURIAL GROUND ROAD","Motor_Type":"5 hp","region":"North","LLAT":13.22268622,"LONG":80.32688182},
    {"lan":80.32648587,"lat":"13.22528865","Zone":"1","ward":"1","address":"ULAGANATHAPURAM VII ST","Motor_Type":"5 hp","region":"North","LLAT":13.22528865,"LONG":80.32648587},
    {"lan":80.31742784,"lat":"13.19070311","Zone":"1","ward":"3","address":"KASI KOIL KUPPAM  1ST STREET","Motor_Type":"10 hp","region":"North","LLAT":13.19070311,"LONG":80.31742784},
    {"lan":80.31971446,"lat":"13.19667972","Zone":"1","ward":"3","address":"KADARKARAI STREET","Motor_Type":"10 hp","region":"North","LLAT":13.19667972,"LONG":80.31971446},
    {"lan":80.31990072,"lat":"13.19722896","Zone":"1","ward":"3","address":"KADARKARAI STREET","Motor_Type":"10 hp","region":"North","LLAT":13.19722896,"LONG":80.31990072},
    {"lan":80.32061725,"lat":"13.19853166","Zone":"1","ward":"3","address":"KADARKARAI STREET","Motor_Type":"10 hp","region":"North","LLAT":13.19853166,"LONG":80.32061725},
    {"lan":80.25861276,"lat":"13.17338318","Zone":"2","ward":"18","address":"KALAIGNAR NAGAR","Motor_Type":"10HP-Diesel Pump","region":"North","LLAT":13.17338318,"LONG":80.25861276},
    {"lan":80.26209399,"lat":"13.17125614","Zone":"2","ward":"18","address":"Harikrishna Eswaran Koil Street","Motor_Type":"10HP-Diesel Pump","region":"North","LLAT":13.17125614,"LONG":80.26209399},
    {"lan":80.26360628,"lat":"13.16902082","Zone":"2","ward":"18","address":"SABAPATHY STREET","Motor_Type":"5HP-Diesel","region":"North","LLAT":13.16902082,"LONG":80.26360628},
    {"lan":80.21778905,"lat":"13.17593392","Zone":"2","ward":"17","address":"PERUMAL KOIL STREET","Motor_Type":"5HP-Diesel","region":"North","LLAT":13.17593392,"LONG":80.21778905},
    {"lan":80.21999848,"lat":"13.1717163","Zone":"2","ward":"17","address":"PUZHAL UNION SALAI","Motor_Type":"Submergeable Motor","region":"North","LLAT":13.1717163,"LONG":80.21999848},
    {"lan":80.21562971,"lat":"13.17530253","Zone":"2","ward":"17","address":"V.C.N. SALAI","Motor_Type":"Submergeable Motor","region":"North","LLAT":13.17530253,"LONG":80.21562971},
    {"lan":80.27188696,"lat":"13.22422284","Zone":"2","ward":"15","address":"Chinna Echandcuzhi Salai Cross Street","Motor_Type":"5HP-Diesel","region":"North","LLAT":13.22422284,"LONG":80.27188696},
    {"lan":80.2781665,"lat":"13.2133763","Zone":"2","ward":"15","address":"Edyanchavadi Main 1st Cross Street","Motor_Type":"Submergeable Motor","region":"North","LLAT":13.2133763,"LONG":80.2781665},
    {"lan":80.2738613,"lat":"13.22509708","Zone":"2","ward":"15","address":"NEW COLONY MAIN STREET","Motor_Type":"2HP","region":"North","LLAT":13.22509708,"LONG":80.2738613},
    {"lan":80.2740938,"lat":"13.206804","Zone":"2","ward":"15","address":"MANALI NEW TOWN 57TH BLOCK 30 FEET  ROAD 35TH STREET","Motor_Type":"5HP-Diesel","region":"North","LLAT":13.206804,"LONG":80.2740938},
    {"lan":80.27472912,"lat":"13.20652434","Zone":"2","ward":"15","address":"MANALI NEW TOWN 57TH BLOCK 30 FEET  ROAD 35TH STREET","Motor_Type":"5HP-Diesel","region":"North","LLAT":13.20652434,"LONG":80.27472912},
    {"lan":80.27513122,"lat":"13.20690861","Zone":"2","ward":"15","address":"MANALI NEW TOWN 57TH BLOCK 30 FEET  ROAD 35TH STREET","Motor_Type":"5HP-Diesel","region":"North","LLAT":13.20690861,"LONG":80.27513122},
    {"lan":80.27546277,"lat":"13.20653623","Zone":"2","ward":"15","address":"MANALI NEW TOWN 57TH BLOCK 30 FEET  ROAD 35TH STREET","Motor_Type":"2HP","region":"North","LLAT":13.20653623,"LONG":80.27546277},
    {"lan":80.27461881,"lat":"13.20699054","Zone":"2","ward":"15","address":"MANALI NEW TOWN 57TH BLOCK 30 FEET  ROAD 35TH STREET","Motor_Type":"2HP","region":"North","LLAT":13.20699054,"LONG":80.27461881},
    {"lan":80.26921067,"lat":"13.19228317","Zone":"2","ward":"16","address":"Andarkuppam Redhills Road","Motor_Type":"10HP-Diesel Pump","region":"North","LLAT":13.19228317,"LONG":80.26921067},
    {"lan":80.2439504,"lat":"13.17089128","Zone":"2","ward":"19","address":"PONNIAMMAN KOIL STREET","Motor_Type":"10hp Diesel pump","region":"North","LLAT":13.17089128,"LONG":80.2439504},
    {"lan":80.24389752,"lat":"13.17159554","Zone":"2","ward":"19","address":"PONNIAMMAN KOIL STREET","Motor_Type":"10hp Diesel pump","region":"North","LLAT":13.17159554,"LONG":80.24389752},
    {"lan":80.24374171,"lat":"13.17425546","Zone":"2","ward":"19","address":"PONNIAMMAN KOIL STREET","Motor_Type":"10hp Diesel pump","region":"North","LLAT":13.17425546,"LONG":80.24374171},
    {"lan":80.25347455,"lat":"13.16950913","Zone":"2","ward":"20","address":"New MGR nagar 1st street Extn","Motor_Type":"5Hp Disel","region":"North","LLAT":13.16950913,"LONG":80.25347455},
    {"lan":80.25491934,"lat":"13.1716756","Zone":"2","ward":"20","address":"BALARAMAN STREET","Motor_Type":"10Hp Disel","region":"North","LLAT":13.1716756,"LONG":80.25491934},
    {"lan":80.26262208,"lat":"13.16367783","Zone":"2","ward":"21","address":"JALAGANDAMARIAMMAN KOIL STREET 3RD LANE","Motor_Type":"5HP Tractor Mounted Pump","region":"North","LLAT":13.16367783,"LONG":80.26262208},
    {"lan":80.25900379,"lat":"13.1520675","Zone":"2","ward":"22","address":"Kannabiran Street","Motor_Type":"25 hp Tractor Mounted Pump\n","region":"North","LLAT":13.1520675,"LONG":80.25900379},
    {"lan":80.25855636,"lat":"13.15487952","Zone":"2","ward":"22","address":"Adhiraj Street","Motor_Type":"25 hp Tractor Mounted Pump","region":"North","LLAT":13.15487952,"LONG":80.25855636},
    {"lan":80.25825735,"lat":"13.15920322","Zone":"2","ward":"22","address":"VEDHAGIRI CROSS STREET","Motor_Type":"25 hp Tractor Mounted Pump","region":"North","LLAT":13.15920322,"LONG":80.25825735},
    {"lan":80.26172916,"lat":"13.1598151","Zone":"2","ward":"22","address":"Mahatma Gandhi 1st Cross Street","Motor_Type":"25 hp Tractor Mounted Pump","region":"North","LLAT":13.1598151,"LONG":80.26172916},
    {"lan":80.23346134,"lat":"13.13498931","Zone":"3","ward":"28","address":"AMBETHKAR NAGAR","Motor_Type":"15HP","region":"North","LLAT":13.13498931,"LONG":80.23346134},
    {"lan":80.23579825,"lat":"13.14286563","Zone":"3","ward":"28","address":"DHANSINGH MAISTRY ST","Motor_Type":"Hiring Tracktor","region":"North","LLAT":13.14286563,"LONG":80.23579825},
    {"lan":80.22426812,"lat":"13.13811336","Zone":"3","ward":"29","address":"ANNAPOORNA MAIN ROAD","Motor_Type":"10HP_TRACTOR/DIESEL","region":"North","LLAT":13.13811336,"LONG":80.22426812},
    {"lan":80.22119326,"lat":"13.13571348","Zone":"3","ward":"29","address":"Munusamy Nagar 2nd st","Motor_Type":"10HP_TRACTOR/DIESEL","region":"North","LLAT":13.13571348,"LONG":80.22119326},
    {"lan":80.23047639,"lat":"13.12784994","Zone":"3","ward":"29","address":"THANIKACHALAM NAGAR 80 FEET ROAD","Motor_Type":"10HP_TRACTOR/DIESEL","region":"North","LLAT":13.12784994,"LONG":80.23047639},
    {"lan":80.21860455,"lat":"13.13751722","Zone":"3","ward":"29","address":"Maha Vishnu Nagar 2nd Street","Motor_Type":"10HP_TRACTOR/DIESEL","region":"North","LLAT":13.13751722,"LONG":80.21860455},
    {"lan":80.22741495,"lat":"13.13901692","Zone":"3","ward":"29","address":"GANAPATHY THOTTAM","Motor_Type":"10HP_TRACTOR/DIESEL","region":"North","LLAT":13.13901692,"LONG":80.22741495},
    {"lan":80.29393567,"lat":"13.14018818","Zone":"4","ward":"39","address":"Arunachala Easwarar Koil Street","Motor_Type":"PUMPING STATION","region":"North","LLAT":13.14018818,"LONG":80.29393567},
    {"lan":80.28337252,"lat":"13.11603619","Zone":"4","ward":"48","address":"Thiruvotriyur High Road","Motor_Type":"TRACTOR MOTOR-25HP Diesel ENGINE","region":"North","LLAT":13.11603619,"LONG":80.28337252},
    {"lan":80.2964008,"lat":"13.1237713","Zone":"4","ward":"43","address":"Thiruvalluvar Nagar Second Street","Motor_Type":"25HP-Diesel Pump","region":"North","LLAT":13.1237713,"LONG":80.2964008},
    {"lan":80.25447409,"lat":"13.14486864","Zone":"4","ward":"34","address":"DURGAI AVENU 1ST MAIN ROAD","Motor_Type":"15hp Submersiable","region":"North","LLAT":13.14486864,"LONG":80.25447409},
    {"lan":80.25475474,"lat":"13.14685593","Zone":"4","ward":"34","address":"DURGAI AVENU 1ST MAIN ROAD","Motor_Type":"15hp Submersiable","region":"North","LLAT":13.14685593,"LONG":80.25475474},
    {"lan":80.25503094,"lat":"13.14407163","Zone":"4","ward":"34","address":"DURGAI AVENU 2ND MAIN ROAD","Motor_Type":"15hp Submersiable","region":"North","LLAT":13.14407163,"LONG":80.25503094},
    {"lan":80.25662304,"lat":"13.14161014","Zone":"4","ward":"34","address":"Thendral Nagar 3rd Street","Motor_Type":"15hp Diesel Pump","region":"North","LLAT":13.14161014,"LONG":80.25662304},
    {"lan":80.25773544,"lat":"13.14337996","Zone":"4","ward":"34","address":"Thendral Nagar 7th Street","Motor_Type":"15hp Submersiable","region":"North","LLAT":13.14337996,"LONG":80.25773544},
    {"lan":80.25747145,"lat":"13.14369258","Zone":"4","ward":"34","address":"Thendral Nagar 8th Street","Motor_Type":"15hp Submersiable","region":"North","LLAT":13.14369258,"LONG":80.25747145},
    {"lan":80.25197435,"lat":"13.13224645","Zone":"4","ward":"35","address":"Muthamil Nagar Viii Block 191st Street","Motor_Type":"15 hp Submersiable","region":"North","LLAT":13.13224645,"LONG":80.25197435},
    {"lan":80.2517377,"lat":"13.13196578","Zone":"4","ward":"35","address":"Muthamil Nagar Viii Block 202nd Street","Motor_Type":"15hp Submersiable","region":"North","LLAT":13.13196578,"LONG":80.2517377},
    {"lan":80.26628113,"lat":"13.1261581","Zone":"4","ward":"37","address":"1st Main Street Golden Colony","Motor_Type":"10hp Diesel Motor","region":"North","LLAT":13.1261581,"LONG":80.26628113},
    {"lan":80.2650114,"lat":"13.12789248","Zone":"4","ward":"37","address":"Annai Sandhya Nagar","Motor_Type":"10 hp Diesel Motor","region":"North","LLAT":13.12789248,"LONG":80.2650114},
    {"lan":80.26583854,"lat":"13.12433584","Zone":"4","ward":"37","address":"East Avenue Road","Motor_Type":"10 hp Diesel Motor","region":"North","LLAT":13.12433584,"LONG":80.26583854},
    {"lan":80.26788275,"lat":"13.12397879","Zone":"4","ward":"37","address":"Goodshed Road","Motor_Type":"10 hp Diesel Motor","region":"North","LLAT":13.12397879,"LONG":80.26788275},
    {"lan":80.25886798,"lat":"13.13244593","Zone":"4","ward":"37","address":"K.K.D.Nagar 7th Block 1st Cross Street","Motor_Type":"10 hp Diesel Motor","region":"North","LLAT":13.13244593,"LONG":80.25886798},
    {"lan":80.2589482,"lat":"13.12934026","Zone":"4","ward":"37","address":"Meenambal Salai","Motor_Type":"10 hp Diesel Motor","region":"North","LLAT":13.12934026,"LONG":80.2589482},
    {"lan":80.25918169,"lat":"13.12695624","Zone":"4","ward":"37","address":"Meenambal Salai (Service Road)","Motor_Type":"10 hp Diesel Motor","region":"North","LLAT":13.12695624,"LONG":80.25918169},
    {"lan":80.26333599,"lat":"13.12657999","Zone":"4","ward":"37","address":"Annai Indra Nagar","Motor_Type":"10 hp Diesel Motor","region":"North","LLAT":13.12657999,"LONG":80.26333599},
    {"lan":80.26466629,"lat":"13.12655127","Zone":"4","ward":"37","address":"Annai Indra Nagar","Motor_Type":"10 hp Diesel Motor","region":"North","LLAT":13.12655127,"LONG":80.26466629},
    {"lan":80.26926282,"lat":"13.12805144","Zone":"4","ward":"37","address":"Rajarathinam Nagar  J Block 1st Lane","Motor_Type":"10 hp Diesel Motor","region":"North","LLAT":13.12805144,"LONG":80.26926282},
    {"lan":80.26936787,"lat":"13.12805456","Zone":"4","ward":"37","address":"Rajarathinam Nagar  J Block 2nd Lane","Motor_Type":"10 hp Diesel Motor","region":"North","LLAT":13.12805456,"LONG":80.26936787},
    {"lan":80.26921798,"lat":"13.12805844","Zone":"4","ward":"37","address":"Rajarathinam Nagar  J Block 3rd Lane","Motor_Type":"10 hp Diesel Motor","region":"North","LLAT":13.12805844,"LONG":80.26921798},
    {"lan":80.26860327,"lat":"13.12742627","Zone":"4","ward":"37","address":"Rajarathinam Nagar  K Block 2nd Lane","Motor_Type":"10 hp Diesel Motor","region":"North","LLAT":13.12742627,"LONG":80.26860327},
    {"lan":80.26859513,"lat":"13.12729475","Zone":"4","ward":"37","address":"Rajarathinam Nagar  K Block 3rd Lane","Motor_Type":"10 hp Diesel Motor","region":"North","LLAT":13.12729475,"LONG":80.26859513},
    {"lan":80.26837977,"lat":"13.12738796","Zone":"4","ward":"37","address":"Rajarathinam Nagar  K Block 4th Lane","Motor_Type":"10 hp Diesel Motor","region":"North","LLAT":13.12738796,"LONG":80.26837977},
    {"lan":80.26864617,"lat":"13.12756692","Zone":"4","ward":"37","address":"Rajarathinam Nagar 4th Main Road","Motor_Type":"10 hp Diesel Motor","region":"North","LLAT":13.12756692,"LONG":80.26864617},
    {"lan":80.26334026,"lat":"13.12755709","Zone":"4","ward":"37","address":"T.V.K.1st Link Road","Motor_Type":"10 hp Diesel Motor","region":"North","LLAT":13.12755709,"LONG":80.26334026},
    {"lan":80.28841815,"lat":"13.13975418","Zone":"4","ward":"40","address":"Cross Road","Motor_Type":"10 hp Tractor","region":"North","LLAT":13.13975418,"LONG":80.28841815},
    {"lan":80.28748574,"lat":"13.13730883","Zone":"4","ward":"40","address":"Illaya St","Motor_Type":"10 hp Tractor","region":"North","LLAT":13.13730883,"LONG":80.28748574},
    {"lan":80.28579712,"lat":"13.13222806","Zone":"4","ward":"40","address":"V.O.C Nagar 28th Link Street","Motor_Type":"10 hp Tractor","region":"North","LLAT":13.13222806,"LONG":80.28579712},
    {"lan":80.28673543,"lat":"13.1315043","Zone":"4","ward":"40","address":"V.O.C. NAGAR  MARKET STREET","Motor_Type":"10 hp Tractor","region":"North","LLAT":13.1315043,"LONG":80.28673543},
    {"lan":80.27365155,"lat":"13.13071163","Zone":"4","ward":"41","address":"Canal Road In M.G.R Nagar","Motor_Type":"10 hp Tractor","region":"North","LLAT":13.13071163,"LONG":80.27365155},
    {"lan":80.27334149,"lat":"13.12940842","Zone":"4","ward":"41","address":"M.G.R Nagar 5th Cross Street (Or) Anna Salai","Motor_Type":"10 hp Tractor","region":"North","LLAT":13.12940842,"LONG":80.27334149},
    {"lan":80.27312845,"lat":"13.1291178","Zone":"4","ward":"41","address":"M.G.R. Nagar,  5th Street","Motor_Type":"10 hp Tractor","region":"North","LLAT":13.1291178,"LONG":80.27312845},
    {"lan":80.27337698,"lat":"13.12889087","Zone":"4","ward":"41","address":"M.G.R. Nagar,  6th Street","Motor_Type":"10 hp Tractor","region":"North","LLAT":13.12889087,"LONG":80.27337698},
    {"lan":80.27356137,"lat":"13.1289277","Zone":"4","ward":"41","address":"M.G.R. Nagar,  7th Street","Motor_Type":"10 hp Tractor","region":"North","LLAT":13.1289277,"LONG":80.27356137},
    {"lan":80.27374028,"lat":"13.12888814","Zone":"4","ward":"41","address":"M.G.R. Nagar,  8th Street","Motor_Type":"10 hp Tractor","region":"North","LLAT":13.12888814,"LONG":80.27374028},
    {"lan":80.28561117,"lat":"13.12678175","Zone":"4","ward":"42","address":"Kailasam Street (Alias) Ellaya 2nd Lane","Motor_Type":"10 hp Submergible","region":"North","LLAT":13.12678175,"LONG":80.28561117},
    {"lan":80.28370386,"lat":"13.1189585","Zone":"4","ward":"42","address":"Manali Chinnaiya Thottam 1st Street","Motor_Type":"10 hp Tractor","region":"North","LLAT":13.1189585,"LONG":80.28370386},
    {"lan":80.28456494,"lat":"13.11907628","Zone":"4","ward":"42","address":"Manali Chinnaiya Thottam 2nd Street","Motor_Type":"10  hp Tractor","region":"North","LLAT":13.11907628,"LONG":80.28456494},
    {"lan":80.284732,"lat":"13.11945665","Zone":"4","ward":"42","address":"Manali Chinnaiya Thottam 3rd Street","Motor_Type":"10 hp Tractor","region":"North","LLAT":13.11945665,"LONG":80.284732},
    {"lan":80.28368869,"lat":"13.11972167","Zone":"4","ward":"42","address":"Manali Chinnaiya Thottam 3rd Street","Motor_Type":"10 hp Tractor","region":"North","LLAT":13.11972167,"LONG":80.28368869},
    {"lan":80.28690951,"lat":"13.12196579","Zone":"4","ward":"42","address":"Thiruvetriyur High Road","Motor_Type":"10 hp Tractor","region":"North","LLAT":13.12196579,"LONG":80.28690951},
    {"lan":80.28593996,"lat":"13.12006892","Zone":"4","ward":"42","address":"Thiruvetriyur High Road","Motor_Type":"10 hp Tractor","region":"North","LLAT":13.12006892,"LONG":80.28593996},
    {"lan":80.29548303,"lat":"13.12377674","Zone":"4","ward":"43","address":"Singaravelar Nagar (pallam)","Motor_Type":"25 hp Submergible","region":"North","LLAT":13.12377674,"LONG":80.29548303},
    {"lan":80.29571971,"lat":"13.12380896","Zone":"4","ward":"43","address":"Singaravelar Nagar (pallam)","Motor_Type":"5 hp Submergible","region":"North","LLAT":13.12380896,"LONG":80.29571971},
    {"lan":80.25484624,"lat":"13.11139579","Zone":"4","ward":"45","address":"Private Street","Motor_Type":"5 hp Tractor","region":"North","LLAT":13.11139579,"LONG":80.25484624},
    {"lan":80.25345045,"lat":"13.10890339","Zone":"4","ward":"45","address":"A.A.Road","Motor_Type":"5 hp Tractor","region":"North","LLAT":13.10890339,"LONG":80.25345045},
    {"lan":80.25735354,"lat":"13.11497427","Zone":"4","ward":"45","address":"Bhakthavatchalam  Colony 13th Street","Motor_Type":"5 hp Tractor","region":"North","LLAT":13.11497427,"LONG":80.25735354},
    {"lan":80.2576026,"lat":"13.11481494","Zone":"4","ward":"45","address":"Bhakthavatchalam  Colony 14th Street","Motor_Type":"5 hp Tractor","region":"North","LLAT":13.11481494,"LONG":80.2576026},
    {"lan":80.25784855,"lat":"13.11468717","Zone":"4","ward":"45","address":"Bhakthavatchalam  Colony 15th Street","Motor_Type":"5 hp Tractor","region":"North","LLAT":13.11468717,"LONG":80.25784855},
    {"lan":80.25804657,"lat":"13.11438978","Zone":"4","ward":"45","address":"Bhakthavatchalam  Colony 16th Street","Motor_Type":"5 hp Tractor","region":"North","LLAT":13.11438978,"LONG":80.25804657},
    {"lan":80.26246835,"lat":"13.11416968","Zone":"4","ward":"46","address":"Balakrishnan Street","Motor_Type":"5 hp Submergible","region":"North","LLAT":13.11416968,"LONG":80.26246835},
    {"lan":80.26606885,"lat":"13.11215351","Zone":"4","ward":"46","address":"C KalyanaPuram 1st Street","Motor_Type":"5 hp Diesel Motor","region":"North","LLAT":13.11215351,"LONG":80.26606885},
    {"lan":80.26751956,"lat":"13.11539565","Zone":"4","ward":"46","address":"Krishnan Street","Motor_Type":"5 hp Diesel Motor","region":"North","LLAT":13.11539565,"LONG":80.26751956},
    {"lan":80.26572049,"lat":"13.115487","Zone":"4","ward":"46","address":"Sathyamoorthy Nagar Main Road","Motor_Type":"5 hp Diesel Motor","region":"North","LLAT":13.115487,"LONG":80.26572049},
    {"lan":80.28514143,"lat":"13.09419851","Zone":"5","ward":"57","address":"Chinnathambi (Chetty) Street","Motor_Type":"5HP-Diesel","region":"North","LLAT":13.09419851,"LONG":80.28514143},
    {"lan":80.28686215,"lat":"13.09671825","Zone":"5","ward":"60","address":"Jones Street","Motor_Type":"5HP-Petrol","region":"North","LLAT":13.09671825,"LONG":80.28686215},
    {"lan":80.26868989,"lat":"13.05895625","Zone":"5","ward":"63","address":"Chella Pillaiyar Koil Street","Motor_Type":"Diseal Motor","region":"North","LLAT":13.05895625,"LONG":80.26868989},
    {"lan":80.2886258,"lat":"13.10983621","Zone":"5","ward":"51","address":"Munusamy Thottam 3rd Lane","Motor_Type":"Diseal Motor","region":"North","LLAT":13.10983621,"LONG":80.2886258},
    {"lan":80.29631696,"lat":"13.11357578","Zone":"5","ward":"50","address":"Kalmandapam Road East","Motor_Type":"Disel","region":"North","LLAT":13.11357578,"LONG":80.29631696},
    {"lan":80.2961153,"lat":"13.11286481","Zone":"5","ward":"50","address":"Venkatesa (Naiken) Street","Motor_Type":"Disel","region":"North","LLAT":13.11286481,"LONG":80.2961153},
    {"lan":80.29583277,"lat":"13.11164076","Zone":"5","ward":"50","address":"Venkatesa (Naiken) Street","Motor_Type":"Disel","region":"North","LLAT":13.11164076,"LONG":80.29583277},
    {"lan":80.29712006,"lat":"13.1102031","Zone":"5","ward":"50","address":"Amman Koil Street","Motor_Type":"Disel","region":"North","LLAT":13.1102031,"LONG":80.29712006},
    {"lan":80.29609885,"lat":"13.10964218","Zone":"5","ward":"50","address":"North Madha Chruch Street","Motor_Type":"Disel","region":"North","LLAT":13.10964218,"LONG":80.29609885},
    {"lan":80.28867862,"lat":"13.10681009","Zone":"5","ward":"52","address":"Corporation Dobikana Isthri Lane","Motor_Type":"Tractor-25HP","region":"North","LLAT":13.10681009,"LONG":80.28867862},
    {"lan":80.27234801,"lat":"13.0825525","Zone":"5","ward":"58","address":"Rippon Building Annexure Road (East)","Motor_Type":"Sludge Pump 20 HP,Sludge Pump 25 HP","region":"North","LLAT":13.0825525,"LONG":80.27234801},
    {"lan":80.26505951,"lat":"13.07898917","Zone":"5","ward":"58","address":"Whannels Road","Motor_Type":"Sludge Pump 25 HP","region":"North","LLAT":13.07898917,"LONG":80.26505951},
    {"lan":80.27180291,"lat":"13.06801646","Zone":"5","ward":"59","address":"Wallajah Road","Motor_Type":"Tractor Motor-Temporary","region":"North","LLAT":13.06801646,"LONG":80.27180291},
    {"lan":80.27218228,"lat":"13.06828936","Zone":"5","ward":"59","address":"Wallajah Road","Motor_Type":"Tractor Motor-Temporary","region":"North","LLAT":13.06828936,"LONG":80.27218228},
    {"lan":80.2720769,"lat":"13.07260438","Zone":"5","ward":"62","address":"Ritchie Street","Motor_Type":"Pumping Station","region":"North","LLAT":13.07260438,"LONG":80.2720769},
    {"lan":80.26436902,"lat":"13.10940819","Zone":"6","ward":"72","address":"Venkatesapuram 1st Street","Motor_Type":"25hp Tractor Motor","region":"Central","LLAT":13.10940819,"LONG":80.26436902},
    {"lan":80.26263466,"lat":"13.10237535","Zone":"6","ward":"73","address":"Decastor Road","Motor_Type":"100hp Diesel","region":"Central","LLAT":13.10237535,"LONG":80.26263466},
    {"lan":80.26064643,"lat":"13.10257135","Zone":"6","ward":"73","address":"Decastor Road","Motor_Type":"25hp Tractor","region":"Central","LLAT":13.10257135,"LONG":80.26064643},
    {"lan":80.25737752,"lat":"13.10370611","Zone":"6","ward":"73","address":"Stephenson Road","Motor_Type":"Submerge(2-50)(2-25)Sump Room","region":"Central","LLAT":13.10370611,"LONG":80.25737752},
    {"lan":80.26028484,"lat":"13.10230032","Zone":"6","ward":"73","address":"Stephenson Road","Motor_Type":"25hp tractor","region":"Central","LLAT":13.10230032,"LONG":80.26028484},
    {"lan":80.26050926,"lat":"13.09723182","Zone":"6","ward":"73","address":"Barracks Gate Road","Motor_Type":"25hp Tractor","region":"Central","LLAT":13.09723182,"LONG":80.26050926},
    {"lan":80.26420671,"lat":"13.09994771","Zone":"6","ward":"73","address":"Polin (N) Street","Motor_Type":"25hp tractor","region":"Central","LLAT":13.09994771,"LONG":80.26420671},
    {"lan":80.25249549,"lat":"13.11138791","Zone":"6","ward":"71","address":"Subramani Street","Motor_Type":"10HP-Tractor","region":"Central","LLAT":13.11138791,"LONG":80.25249549},
    {"lan":80.25254766,"lat":"13.11271538","Zone":"6","ward":"71","address":"Vadivelu Street","Motor_Type":"10HP-Tractor","region":"Central","LLAT":13.11271538,"LONG":80.25254766},
    {"lan":80.2543018,"lat":"13.1087659","Zone":"6","ward":"71","address":"Poleriamman Koil St.","Motor_Type":"5HP-Diesel","region":"Central","LLAT":13.1087659,"LONG":80.2543018},
    {"lan":80.24880626,"lat":"13.10816388","Zone":"6","ward":"71","address":"Perambur High Road","Motor_Type":"1HP-Electric","region":"Central","LLAT":13.10816388,"LONG":80.24880626},
    {"lan":80.2421845,"lat":"13.10773528","Zone":"6","ward":"71","address":"Perambur High Road","Motor_Type":"10HP&25HP-Electrical","region":"Central","LLAT":13.10773528,"LONG":80.2421845},
    {"lan":80.25986973,"lat":"13.10908333","Zone":"6","ward":"71","address":"DR. AMBEDKAR COLLEGE ROAD","Motor_Type":"55HP-Electrical","region":"Central","LLAT":13.10908333,"LONG":80.25986973},
    {"lan":80.23868378,"lat":"13.11157618","Zone":"6","ward":"70","address":"Paper Mills Road","Motor_Type":"35HP","region":"Central","LLAT":13.11157618,"LONG":80.23868378},
    {"lan":80.24158995,"lat":"13.10983817","Zone":"6","ward":"70","address":"Paper Mills Road","Motor_Type":"35HP","region":"Central","LLAT":13.10983817,"LONG":80.24158995},
    {"lan":80.23720209,"lat":"13.10849889","Zone":"6","ward":"70","address":"Foxen Street","Motor_Type":"35HP","region":"Central","LLAT":13.10849889,"LONG":80.23720209},
    {"lan":80.24311845,"lat":"13.12430524","Zone":"6","ward":"70","address":"Jamunabai Nagar","Motor_Type":"35HP","region":"Central","LLAT":13.12430524,"LONG":80.24311845},
    {"lan":80.24251676,"lat":"13.11615855","Zone":"6","ward":"70","address":"Madhavaram High Road North","Motor_Type":"35HP","region":"Central","LLAT":13.11615855,"LONG":80.24251676},
    {"lan":80.23620648,"lat":"13.09937951","Zone":"6","ward":"70","address":"Madurai Pillai Street","Motor_Type":"35HP","region":"Central","LLAT":13.09937951,"LONG":80.23620648},
    {"lan":80.23408458,"lat":"13.11291368","Zone":"6","ward":"69","address":"Gopal Colony East Main Road","Motor_Type":"5 & 10 hp","region":"Central","LLAT":13.11291368,"LONG":80.23408458},
    {"lan":80.23403433,"lat":"13.11260612","Zone":"6","ward":"69","address":"Gopal Colony East Main Road","Motor_Type":"5 & 10 hp","region":"Central","LLAT":13.11260612,"LONG":80.23403433},
    {"lan":80.23356673,"lat":"13.11272184","Zone":"6","ward":"69","address":"Gopal Colony 3rd Cross Street","Motor_Type":"5 & 10 hp","region":"Central","LLAT":13.11272184,"LONG":80.23356673},
    {"lan":80.23543345,"lat":"13.11198081","Zone":"6","ward":"69","address":"Sivakami Street","Motor_Type":"10HP","region":"Central","LLAT":13.11198081,"LONG":80.23543345},
    {"lan":80.23630039,"lat":"13.11160897","Zone":"6","ward":"69","address":"Sivakami Street","Motor_Type":"10HP","region":"Central","LLAT":13.11160897,"LONG":80.23630039},
    {"lan":80.22883197,"lat":"13.10843538","Zone":"6","ward":"69","address":"Loco Scheme 1st Main Road","Motor_Type":"10HP","region":"Central","LLAT":13.10843538,"LONG":80.22883197},
    {"lan":80.21480672,"lat":"13.12935809","Zone":"6","ward":"65","address":"Kolathur School Road","Motor_Type":"10HP","region":"Central","LLAT":13.12935809,"LONG":80.21480672},
    {"lan":80.21468725,"lat":"13.12777878","Zone":"6","ward":"65","address":"K.S. Nagar Iii Street","Motor_Type":"10HP,15HP","region":"Central","LLAT":13.12777878,"LONG":80.21468725},
    {"lan":80.20660217,"lat":"13.12572465","Zone":"6","ward":"65","address":"Dr. Ambedkar Nagar Main Road","Motor_Type":"10HP","region":"Central","LLAT":13.12572465,"LONG":80.20660217},
    {"lan":80.20959742,"lat":"13.12520516","Zone":"6","ward":"65","address":"Kambar Street Kannaki Nagar","Motor_Type":"10HP","region":"Central","LLAT":13.12520516,"LONG":80.20959742},
    {"lan":80.211927,"lat":"13.12394518","Zone":"6","ward":"65","address":"Anusuya Nagar Main Road","Motor_Type":"15","region":"Central","LLAT":13.12394518,"LONG":80.211927},
    {"lan":80.21415692,"lat":"13.12254992","Zone":"6","ward":"65","address":"Siva Parvathi Nagar Main  Street","Motor_Type":"10HP","region":"Central","LLAT":13.12254992,"LONG":80.21415692},
    {"lan":80.21858199,"lat":"13.12525084","Zone":"6","ward":"65","address":"Mangali Neethimaan Nagar Main Rd.","Motor_Type":"10HP","region":"Central","LLAT":13.12525084,"LONG":80.21858199},
    {"lan":80.22218094,"lat":"13.12305301","Zone":"6","ward":"65","address":"Anjugam Nagar I Main Cross Road","Motor_Type":"10HP","region":"Central","LLAT":13.12305301,"LONG":80.22218094},
    {"lan":80.20841219,"lat":"13.12051964","Zone":"6","ward":"65","address":"Poompuhar Nagar West  Ii Street","Motor_Type":"10HP","region":"Central","LLAT":13.12051964,"LONG":80.20841219},
    {"lan":80.22373467,"lat":"13.11908958","Zone":"6","ward":"65","address":"Kolathur Colony Haridoss Tank Street","Motor_Type":"10HP","region":"Central","LLAT":13.11908958,"LONG":80.22373467},
    {"lan":80.23449015,"lat":"13.12232515","Zone":"6","ward":"67","address":"Gurumoorthy Nagar","Motor_Type":"10hp/diesal","region":"Central","LLAT":13.12232515,"LONG":80.23449015},
    {"lan":80.22465303,"lat":"13.12886843","Zone":"6","ward":"66","address":"Balaji Nagar Main Road","Motor_Type":"100hp 2NOS&25 2NOS","region":"Central","LLAT":13.12886843,"LONG":80.22465303},
    {"lan":80.22308385,"lat":"13.12421143","Zone":"6","ward":"66","address":"Mgr Street Annai Sathya Nagar","Motor_Type":"100hp Disel Motor","region":"Central","LLAT":13.12421143,"LONG":80.22308385},
    {"lan":80.22406718,"lat":"13.1214827","Zone":"6","ward":"66","address":"Balaji Nagar Main Road","Motor_Type":"100 hp Diesel Motor","region":"Central","LLAT":13.1214827,"LONG":80.22406718},
    {"lan":80.26588684,"lat":"13.09108624","Zone":"6","ward":"78","address":"Narachingaperumal Koil Street (Road name should be changed to V.V. Koil Street)","Motor_Type":"25hp Tractor pump","region":"Central","LLAT":13.09108624,"LONG":80.26588684},
    {"lan":80.26229264,"lat":"13.09696478","Zone":"6","ward":"76","address":"Angalamman Koil Street","Motor_Type":"Stagnated water can be removed using 100 HP Diesel Pump\n","region":"Central","LLAT":13.09696478,"LONG":80.26229264},
    {"lan":80.25893327,"lat":"13.09420598","Zone":"6","ward":"76","address":"Perambur Barracks Road (Veda Vinayagar Salai)","Motor_Type":"Stagnated water can be removed using 100 HP Diesel Pump\n","region":"Central","LLAT":13.09420598,"LONG":80.25893327},
    {"lan":80.26160394,"lat":"13.09455994","Zone":"6","ward":"76","address":"Kalyana Mastri Garden 1st Street","Motor_Type":"25 hp Tractor Mounted Pump\n","region":"Central","LLAT":13.09455994,"LONG":80.26160394},
    {"lan":80.24357088,"lat":"13.10629812","Zone":"6","ward":"74","address":"Rajiv Gandhi Nagar 1st Street","Motor_Type":"Submersible Motor 5hp","region":"Central","LLAT":13.10629812,"LONG":80.24357088},
    {"lan":80.24235086,"lat":"13.09483243","Zone":"6","ward":"75","address":"Chengalvarayan Street","Motor_Type":"10 HP Electrical","region":"Central","LLAT":13.09483243,"LONG":80.24235086},
    {"lan":80.24275894,"lat":"13.09037319","Zone":"6","ward":"75","address":"A.K. Sami Nagar 1st Street","Motor_Type":"20 Hp Tractor\n","region":"Central","LLAT":13.09037319,"LONG":80.24275894},
    {"lan":80.25085689,"lat":"13.09136561","Zone":"6","ward":"75","address":"Ss.Puram `B Block 2nd  Street","Motor_Type":"10 HP Electrical  Motor 2 Nos","region":"Central","LLAT":13.09136561,"LONG":80.25085689},
    {"lan":80.26119577,"lat":"13.09920949","Zone":"6","ward":"77","address":"Bogi Palayam 2nd Main Road","Motor_Type":"25 HP Tractor Used","region":"Central","LLAT":13.09920949,"LONG":80.26119577},
    {"lan":80.2619188,"lat":"13.09869172","Zone":"6","ward":"77","address":"Market Street","Motor_Type":"25 HP Tractor","region":"Central","LLAT":13.09869172,"LONG":80.2619188},
    {"lan":80.26184047,"lat":"13.09841343","Zone":"6","ward":"77","address":"Bogi Palayam 1st Main Street","Motor_Type":"25 HP Tractor","region":"Central","LLAT":13.09841343,"LONG":80.26184047},
    {"lan":80.26308462,"lat":"13.0956488","Zone":"6","ward":"77","address":"Ruthrappa Street","Motor_Type":"3 x50 HP,1x25 HP  Electrical Motors, 2x100 HP Diesel Motor","region":"Central","LLAT":13.0956488,"LONG":80.26308462},
    {"lan":80.26294559,"lat":"13.09566702","Zone":"6","ward":"77","address":"Munusamy Street","Motor_Type":"4 x50 HP,1x25 HP  Electrical Motors, 2x100 HP Diesel Motor","region":"Central","LLAT":13.09566702,"LONG":80.26294559},
    {"lan":80.26725757,"lat":"13.0947527","Zone":"6","ward":"77","address":"Oil Mill Street","Motor_Type":"25 HP Tractor","region":"Central","LLAT":13.0947527,"LONG":80.26725757},
    {"lan":80.1504742,"lat":"13.12910501","Zone":"7","ward":"79","address":"PARI SAMBANTHAR STREET","Motor_Type":"5HP-Diesel","region":"Central","LLAT":13.12910501,"LONG":80.1504742},
    {"lan":80.14747887,"lat":"13.13195649","Zone":"7","ward":"79","address":"Anna 1st Cross Street","Motor_Type":"5HP-Diesel","region":"Central","LLAT":13.13195649,"LONG":80.14747887},
    {"lan":80.15563562,"lat":"13.11559236","Zone":"7","ward":"81","address":"K.K Road 3rd Cross Street","Motor_Type":"5HP-Diesel","region":"Central","LLAT":13.11559236,"LONG":80.15563562},
    {"lan":80.15339044,"lat":"13.12248045","Zone":"7","ward":"81","address":"DURAISAMY REDDY STREET","Motor_Type":"5HP-Diesel","region":"Central","LLAT":13.12248045,"LONG":80.15339044},
    {"lan":80.14321187,"lat":"13.12367646","Zone":"7","ward":"81","address":"RAM BHARATHI STREET","Motor_Type":"5HP-Diesel","region":"Central","LLAT":13.12367646,"LONG":80.14321187},
    {"lan":80.16174306,"lat":"13.11780006","Zone":"7","ward":"82","address":"NARAYANAN STREET","Motor_Type":"5HP-Diesel","region":"Central","LLAT":13.11780006,"LONG":80.16174306},
    {"lan":80.17243187,"lat":"13.11588119","Zone":"7","ward":"82","address":"KUPPUSAMY STREET","Motor_Type":"TRACTOR MOTOR-25HP Diesel ENGINE","region":"Central","LLAT":13.11588119,"LONG":80.17243187},
    {"lan":80.16411108,"lat":"13.12637588","Zone":"7","ward":"82","address":"Indra Nagar 18th Street","Motor_Type":"5HP-Diesel","region":"Central","LLAT":13.12637588,"LONG":80.16411108},
    {"lan":80.17475482,"lat":"13.13516599","Zone":"7","ward":"82","address":"IST MAIN ROAD EAST BALAJI NAGAR","Motor_Type":"TRACTOR MOTOR-25HP Diesel ENGINE","region":"Central","LLAT":13.13516599,"LONG":80.17475482},
    {"lan":80.19471447,"lat":"13.12572409","Zone":"7","ward":"83","address":"Water Canal Road","Motor_Type":"5HP-Diesel","region":"Central","LLAT":13.12572409,"LONG":80.19471447},
    {"lan":80.19989216,"lat":"13.11541142","Zone":"7","ward":"83","address":"SASTHA NAGAR","Motor_Type":"35HP-Tractor","region":"Central","LLAT":13.11541142,"LONG":80.19989216},
    {"lan":80.19819488,"lat":"13.11196282","Zone":"7","ward":"83","address":"New Street","Motor_Type":"5HP-Diesel","region":"Central","LLAT":13.11196282,"LONG":80.19819488},
    {"lan":80.18554386,"lat":"13.08434938","Zone":"7","ward":"93","address":"Dr. JJ Nagar East 2nd Block Agathiyar Road","Motor_Type":"Tracter 10hp","region":"Central","LLAT":13.08434938,"LONG":80.18554386},
    {"lan":80.14800322,"lat":"13.10784267","Zone":"7","ward":"85","address":"K K  2nd Street","Motor_Type":"5HP-Diesel","region":"Central","LLAT":13.10784267,"LONG":80.14800322},
    {"lan":80.15798293,"lat":"13.11379717","Zone":"7","ward":"85","address":"O.V.ALAGESAN NAGAR","Motor_Type":"5HP-Diesel","region":"Central","LLAT":13.11379717,"LONG":80.15798293},
    {"lan":80.15735444,"lat":"13.11025666","Zone":"7","ward":"85","address":"THIRUVALLUVAR 1ST STREET","Motor_Type":"5HP-Diesel","region":"Central","LLAT":13.11025666,"LONG":80.15735444},
    {"lan":80.15462146,"lat":"13.10801096","Zone":"7","ward":"85","address":"KANNIKAN MAISTRY STREET","Motor_Type":"5HP-Diesel","region":"Central","LLAT":13.10801096,"LONG":80.15462146},
    {"lan":80.16714352,"lat":"13.10042343","Zone":"7","ward":"85","address":"PADASALAI STREET","Motor_Type":"25HP-Diesel Pump","region":"Central","LLAT":13.10042343,"LONG":80.16714352},
    {"lan":80.16900589,"lat":"13.10284478","Zone":"7","ward":"85","address":"NALLAKINARU STREET","Motor_Type":"25HP-Diesel Pump","region":"Central","LLAT":13.10284478,"LONG":80.16900589},
    {"lan":80.17665149,"lat":"13.08433617","Zone":"7","ward":"92","address":"V.G.P Nagar 1st Street","Motor_Type":"5HP-Diesel","region":"Central","LLAT":13.08433617,"LONG":80.17665149},
    {"lan":80.17499489,"lat":"13.08543733","Zone":"7","ward":"92","address":"Bharathiyar Street","Motor_Type":"5HP-Diesel","region":"Central","LLAT":13.08543733,"LONG":80.17499489},
    {"lan":80.18061819,"lat":"13.0813717","Zone":"7","ward":"92","address":"10th Block Pattinathar Salai","Motor_Type":"5HP-Diesel","region":"Central","LLAT":13.0813717,"LONG":80.18061819},
    {"lan":80.18063583,"lat":"13.08135166","Zone":"7","ward":"92","address":"10th Block Pattinathar Salai","Motor_Type":"5HP-Diesel","region":"Central","LLAT":13.08135166,"LONG":80.18063583},
    {"lan":80.187415,"lat":"13.10977704","Zone":"7","ward":"84","address":"NORTH AVENUE","Motor_Type":"PUMPING STATION","region":"Central","LLAT":13.10977704,"LONG":80.187415},
    {"lan":80.18648061,"lat":"13.10987897","Zone":"7","ward":"84","address":"NORTH AVENUE","Motor_Type":"PUMPING STATION","region":"Central","LLAT":13.10987897,"LONG":80.18648061},
    {"lan":80.18738635,"lat":"13.10978511","Zone":"7","ward":"84","address":"NORTH AVENUE","Motor_Type":"TRACTOR MOTOR-25HP Diesel ENGINE","region":"Central","LLAT":13.10978511,"LONG":80.18738635},
    {"lan":80.18646913,"lat":"13.10988057","Zone":"7","ward":"84","address":"NORTH AVENUE","Motor_Type":"TRACTOR MOTOR-25HP Diesel ENGINE","region":"Central","LLAT":13.10988057,"LONG":80.18646913},
    {"lan":80.18722958,"lat":"13.10989663","Zone":"7","ward":"84","address":"61 ST STREET","Motor_Type":"TRACTOR MOTOR-25HP Diesel ENGINE","region":"Central","LLAT":13.10989663,"LONG":80.18722958},
    {"lan":80.18718409,"lat":"13.10994747","Zone":"7","ward":"84","address":"61 ST STREET","Motor_Type":"TRACTOR MOTOR-25HP Diesel ENGINE","region":"Central","LLAT":13.10994747,"LONG":80.18718409},
    {"lan":80.18699482,"lat":"13.11156452","Zone":"7","ward":"84","address":"68 TH STREET","Motor_Type":"TRACTOR MOTOR-25HP Diesel ENGINE","region":"Central","LLAT":13.11156452,"LONG":80.18699482},
    {"lan":80.17880687,"lat":"13.09876089","Zone":"7","ward":"84","address":"Gangai Amman Koil 2nd Street","Motor_Type":"TRACTOR MOTOR-25HP Diesel ENGINE","region":"Central","LLAT":13.09876089,"LONG":80.17880687},
    {"lan":80.18561976,"lat":"13.11279984","Zone":"7","ward":"84","address":"72 ND STREET","Motor_Type":"SUBWAY MOTOR ROOM","region":"Central","LLAT":13.11279984,"LONG":80.18561976},
    {"lan":80.18262152,"lat":"13.10888977","Zone":"7","ward":"84","address":"32ND STREET","Motor_Type":"MOTOR ROOM","region":"Central","LLAT":13.10888977,"LONG":80.18262152},
    {"lan":80.17743716,"lat":"13.09939723","Zone":"7","ward":"84","address":"BAJANAI KOIL STREET","Motor_Type":"5HP-Petrol","region":"Central","LLAT":13.09939723,"LONG":80.17743716},
    {"lan":80.18680699,"lat":"13.10764575","Zone":"7","ward":"87","address":"EAST AVENUE","Motor_Type":"25Hp Tractor motor","region":"Central","LLAT":13.10764575,"LONG":80.18680699},
    {"lan":80.18564668,"lat":"13.10687378","Zone":"7","ward":"87","address":"TNHB 2ND STREET","Motor_Type":"5Hp Diesel motor","region":"Central","LLAT":13.10687378,"LONG":80.18564668},
    {"lan":80.17796247,"lat":"13.09473743","Zone":"7","ward":"87","address":"KARUNANITHI STREET","Motor_Type":"5Hp Diesel motor","region":"Central","LLAT":13.09473743,"LONG":80.17796247},
    {"lan":80.15481099,"lat":"13.10011784","Zone":"7","ward":"86","address":"Enford Street","Motor_Type":"Tractor Motor 25hp - Temporary","region":"Central","LLAT":13.10011784,"LONG":80.15481099},
    {"lan":80.14776476,"lat":"13.08780617","Zone":"7","ward":"86","address":"Rampoornam Nagar 1st Main Road","Motor_Type":"Tractor Motor 50hp","region":"Central","LLAT":13.08780617,"LONG":80.14776476},
    {"lan":80.17582693,"lat":"13.09614035","Zone":"7","ward":"86","address":"Greenways Colony","Motor_Type":"Petrol Motor 5hp","region":"Central","LLAT":13.09614035,"LONG":80.17582693},
    {"lan":80.142288,"lat":"13.09674617","Zone":"7","ward":"86","address":"Indira Street","Motor_Type":"Submersible Motor 10hp","region":"Central","LLAT":13.09674617,"LONG":80.142288},
    {"lan":80.1920164,"lat":"13.0828865","Zone":"7","ward":"90","address":"GOLDEN JUBILEE FLATS","Motor_Type":"Submersible Motor (Two Nos.)-Permanent","region":"Central","LLAT":13.0828865,"LONG":80.1920164},
    {"lan":80.19101131,"lat":"13.0817463","Zone":"7","ward":"90","address":"Balaji Nagar 3rd Street","Motor_Type":"Submersible 5Hp Motor - Permanent","region":"Central","LLAT":13.0817463,"LONG":80.19101131},
    {"lan":80.19206041,"lat":"13.08286584","Zone":"7","ward":"90","address":"GOLDEN JUBILEE FLATS","Motor_Type":"Tractor Motor 25hp - Temporary","region":"Central","LLAT":13.08286584,"LONG":80.19206041},
    {"lan":80.19174804,"lat":"13.10130856","Zone":"7","ward":"88","address":"M.T.H ROAD PADI","Motor_Type":"25HP","region":"Central","LLAT":13.10130856,"LONG":80.19174804},
    {"lan":80.18841677,"lat":"13.09964199","Zone":"7","ward":"88","address":"M.T.H ROAD METTU KULAM","Motor_Type":"25HP","region":"Central","LLAT":13.09964199,"LONG":80.18841677},
    {"lan":80.19174152,"lat":"13.09512698","Zone":"7","ward":"88","address":"W Block B Sector 2nd Avenue.,","Motor_Type":"5HP","region":"Central","LLAT":13.09512698,"LONG":80.19174152},
    {"lan":80.1596343,"lat":"13.12312445","Zone":"7","ward":"80","address":"PUDUR HIGH ROAD","Motor_Type":"5HP","region":"Central","LLAT":13.12312445,"LONG":80.1596343},
    {"lan":80.15812379,"lat":"13.12319464","Zone":"7","ward":"80","address":"Bakthavachalam Ist Cross Street","Motor_Type":"5HP","region":"Central","LLAT":13.12319464,"LONG":80.15812379},
    {"lan":80.1584913,"lat":"13.12359304","Zone":"7","ward":"80","address":"Prakasagaru Cross Street","Motor_Type":"25HP","region":"Central","LLAT":13.12359304,"LONG":80.1584913},
    {"lan":80.16049016,"lat":"13.12402608","Zone":"7","ward":"80","address":"Kamarajar Street","Motor_Type":"5HP","region":"Central","LLAT":13.12402608,"LONG":80.16049016},
    {"lan":80.16020522,"lat":"13.12448876","Zone":"7","ward":"80","address":"Nagathamman Koil 1st Cross Street","Motor_Type":"25HP","region":"Central","LLAT":13.12448876,"LONG":80.16020522},
    {"lan":80.16313821,"lat":"13.12753289","Zone":"7","ward":"80","address":"Thirumalai Priya Nagar 16th Street","Motor_Type":"25HP","region":"Central","LLAT":13.12753289,"LONG":80.16313821},
    {"lan":80.16373397,"lat":"13.12757071","Zone":"7","ward":"80","address":"SABARI STREET","Motor_Type":"25HP","region":"Central","LLAT":13.12757071,"LONG":80.16373397},
    {"lan":80.16504763,"lat":"13.10511834","Zone":"7","ward":"85","address":"Mangalapuram Main Road","Motor_Type":"25 hp Tractor Mounted Pump","region":"Central","LLAT":13.10511834,"LONG":80.16504763},
    {"lan":80.1646436,"lat":"13.10126577","Zone":"7","ward":"85","address":"MTH ROAD","Motor_Type":"25 hp Tractor Mounted Pump","region":"Central","LLAT":13.10126577,"LONG":80.1646436},
    {"lan":80.21520071,"lat":"13.10334832","Zone":"8","ward":"95","address":"Dr.Ambedkar Main Road","Motor_Type":"25HP-Diesel Pump","region":"Central","LLAT":13.10334832,"LONG":80.21520071},
    {"lan":80.21526157,"lat":"13.10355376","Zone":"8","ward":"95","address":"Dr.Ambedkar Main Road","Motor_Type":"100HP-Diesel Pump","region":"Central","LLAT":13.10355376,"LONG":80.21526157},
    {"lan":80.21481565,"lat":"13.10209069","Zone":"8","ward":"95","address":"Dr.Ambedkar Main Road","Motor_Type":"10HP-Diesel Pump","region":"Central","LLAT":13.10209069,"LONG":80.21481565},
    {"lan":80.21474832,"lat":"13.1017747","Zone":"8","ward":"95","address":"Dr.Ambedkar Main Road","Motor_Type":"10HP-Diesel Pump","region":"Central","LLAT":13.1017747,"LONG":80.21474832},
    {"lan":80.21281827,"lat":"13.10878917","Zone":"8","ward":"95","address":"Mannadi Othavadai Street","Motor_Type":"25HP-Diesel Pump","region":"Central","LLAT":13.10878917,"LONG":80.21281827},
    {"lan":80.21033114,"lat":"13.10836251","Zone":"8","ward":"95","address":"Perumal Koil East Mada Street","Motor_Type":"25HP-Diesel Pump","region":"Central","LLAT":13.10836251,"LONG":80.21033114},
    {"lan":80.20925541,"lat":"13.10268226","Zone":"8","ward":"95","address":"M T H ROAD","Motor_Type":"25HP-Diesel Pump","region":"Central","LLAT":13.10268226,"LONG":80.20925541},
    {"lan":80.20286772,"lat":"13.10350417","Zone":"8","ward":"95","address":"High Court Colony Main Road","Motor_Type":"25HP-Diesel Pump","region":"Central","LLAT":13.10350417,"LONG":80.20286772},
    {"lan":80.20193251,"lat":"13.1000946","Zone":"8","ward":"95","address":"Thirunagar 5th Street","Motor_Type":"25HP-Diesel Pump","region":"Central","LLAT":13.1000946,"LONG":80.20193251},
    {"lan":80.20193184,"lat":"13.10007414","Zone":"8","ward":"95","address":"Thirunagar 5th Street","Motor_Type":"25HP-Diesel Pump","region":"Central","LLAT":13.10007414,"LONG":80.20193184},
    {"lan":80.20728804,"lat":"13.10564088","Zone":"8","ward":"95","address":"Baliamman Koil Street","Motor_Type":"10hp-Electrical","region":"Central","LLAT":13.10564088,"LONG":80.20728804},
    {"lan":80.20094599,"lat":"13.11403565","Zone":"8","ward":"94","address":"North Jaganatha Nagar Annex 2nd Street","Motor_Type":"10hp-Electrical","region":"Central","LLAT":13.11403565,"LONG":80.20094599},
    {"lan":80.20317148,"lat":"13.11263087","Zone":"8","ward":"94","address":"North Jagannahan Nagar 1st Main Road","Motor_Type":"10hp-Electrical","region":"Central","LLAT":13.11263087,"LONG":80.20317148},
    {"lan":80.2043787,"lat":"13.10885364","Zone":"8","ward":"94","address":"Sidco Nagar 3rd Main Road","Motor_Type":"10hp-Electrical","region":"Central","LLAT":13.10885364,"LONG":80.2043787},
    {"lan":80.23064546,"lat":"13.09891752","Zone":"8","ward":"96","address":"United India Nagar 1st Main Road","Motor_Type":"10hp-Tractor","region":"Central","LLAT":13.09891752,"LONG":80.23064546},
    {"lan":80.23053824,"lat":"13.09732205","Zone":"8","ward":"97","address":"(N.M.K.) Nattu Muthyal Khan Street","Motor_Type":"Diesel","region":"Central","LLAT":13.09732205,"LONG":80.23053824},
    {"lan":80.22979384,"lat":"13.0927543","Zone":"8","ward":"97","address":"Duraisamy Street","Motor_Type":"Diesel","region":"Central","LLAT":13.0927543,"LONG":80.22979384},
    {"lan":80.22666173,"lat":"13.09508519","Zone":"8","ward":"97","address":"Muthamman Koil Street","Motor_Type":"Diesel","region":"Central","LLAT":13.09508519,"LONG":80.22666173},
    {"lan":80.22756183,"lat":"13.0987632","Zone":"8","ward":"97","address":"Parasurama Easwaran Koil North Mada Veedhi","Motor_Type":"Diesel","region":"Central","LLAT":13.0987632,"LONG":80.22756183},
    {"lan":80.2280812,"lat":"13.09839567","Zone":"8","ward":"97","address":"Periyar Road Slum","Motor_Type":"Diesel","region":"Central","LLAT":13.09839567,"LONG":80.2280812},
    {"lan":80.2270346,"lat":"13.09305648","Zone":"8","ward":"97","address":"Thanthai Periyar Nagar 1st Cross Street","Motor_Type":"Diesel","region":"Central","LLAT":13.09305648,"LONG":80.2270346},
    {"lan":80.23287989,"lat":"13.09296053","Zone":"8","ward":"98","address":"Mettu Street","Motor_Type":"Diesel","region":"Central","LLAT":13.09296053,"LONG":80.23287989},
    {"lan":80.23675081,"lat":"13.09656342","Zone":"8","ward":"98","address":"Somasundharam 6th Street","Motor_Type":"Diesel","region":"Central","LLAT":13.09656342,"LONG":80.23675081},
    {"lan":80.24542079,"lat":"13.07548621","Zone":"8","ward":"99","address":"Pullapuram I Steet (Main Road)","Motor_Type":"25hp-Diesel","region":"Central","LLAT":13.07548621,"LONG":80.24542079},
    {"lan":80.2492675,"lat":"13.07791754","Zone":"8","ward":"99","address":"Sasthri Nagar Main Road (Slum)","Motor_Type":"25hp-Diesel","region":"Central","LLAT":13.07791754,"LONG":80.2492675},
    {"lan":80.25306899,"lat":"13.08931533","Zone":"8","ward":"99","address":"Shanmugarayan Street","Motor_Type":"7.5hp-Diesel","region":"Central","LLAT":13.08931533,"LONG":80.25306899},
    {"lan":80.21455168,"lat":"13.06281369","Zone":"8","ward":"106","address":"Mmda Colony Main Road","Motor_Type":"10hp-Electrical\n","region":"Central","LLAT":13.06281369,"LONG":80.21455168},
    {"lan":80.25048808,"lat":"13.08600798","Zone":"8","ward":"100","address":"Millers Rd","Motor_Type":"10hp-Electrical","region":"Central","LLAT":13.08600798,"LONG":80.25048808},
    {"lan":80.24578473,"lat":"13.0796483","Zone":"8","ward":"100","address":"Waddels Road","Motor_Type":"25hp-Diesel","region":"Central","LLAT":13.0796483,"LONG":80.24578473},
    {"lan":80.24609451,"lat":"13.07793582","Zone":"8","ward":"99","address":"Evr Lane","Motor_Type":"30hp-Electrical","region":"Central","LLAT":13.07793582,"LONG":80.24609451},
    {"lan":80.21798967,"lat":"13.08846565","Zone":"8","ward":"102","address":"5th Main Road","Motor_Type":"10hp-Tractor","region":"Central","LLAT":13.08846565,"LONG":80.21798967},
    {"lan":80.22335177,"lat":"13.08813619","Zone":"8","ward":"102","address":"F- Block 9th Street","Motor_Type":"10hp-Tractor","region":"Central","LLAT":13.08813619,"LONG":80.22335177},
    {"lan":80.21572793,"lat":"13.09124502","Zone":"8","ward":"102","address":"Q Block 15th Street","Motor_Type":"10hp-Tractor","region":"Central","LLAT":13.09124502,"LONG":80.21572793},
    {"lan":80.2069059,"lat":"13.07701344","Zone":"8","ward":"105","address":"Amaravathy Nagar Main Road","Motor_Type":"25Hp-Diesel","region":"Central","LLAT":13.07701344,"LONG":80.2069059},
    {"lan":80.21086029,"lat":"13.06869572","Zone":"8","ward":"105","address":"Durai Pillai Street","Motor_Type":"25Hp-Diesel","region":"Central","LLAT":13.06869572,"LONG":80.21086029},
    {"lan":80.2122499,"lat":"13.07206096","Zone":"8","ward":"105","address":"Sbi Staff Colony 1st Street","Motor_Type":"25Hp-Diesel","region":"Central","LLAT":13.07206096,"LONG":80.2122499},
    {"lan":80.21475994,"lat":"13.07362413","Zone":"8","ward":"105","address":"Friends Avenue","Motor_Type":"25Hp-Diesel","region":"Central","LLAT":13.07362413,"LONG":80.21475994},
    {"lan":80.21886585,"lat":"13.06605735","Zone":"8","ward":"107","address":"VInobaji Street","Motor_Type":"1.5hp","region":"Central","LLAT":13.06605735,"LONG":80.21886585},
    {"lan":80.24325518,"lat":"13.07352828","Zone":"8","ward":"108","address":"Corporation Model Lane","Motor_Type":"10hp-Tractor","region":"Central","LLAT":13.07352828,"LONG":80.24325518},
    {"lan":80.24032511,"lat":"13.07433433","Zone":"8","ward":"108","address":"Doss Puram Road (Slum Road)","Motor_Type":"10hp-Tractor","region":"Central","LLAT":13.07433433,"LONG":80.24032511},
    {"lan":80.24650911,"lat":"13.07055852","Zone":"8","ward":"108","address":"Mayar Ramanathan Salai","Motor_Type":"10hp-Tractor","region":"Central","LLAT":13.07055852,"LONG":80.24650911},
    {"lan":80.22492955,"lat":"13.09362588","Zone":"8","ward":"101","address":"First Avenue Road","Motor_Type":"Diesel","region":"Central","LLAT":13.09362588,"LONG":80.22492955},
    {"lan":80.22620792,"lat":"13.08752925","Zone":"8","ward":"101","address":"Nehru Street","Motor_Type":"Diesel","region":"Central","LLAT":13.08752925,"LONG":80.22620792},
    {"lan":80.22629201,"lat":"13.08823872","Zone":"8","ward":"101","address":"V.O.C New Colony","Motor_Type":"Diesel","region":"Central","LLAT":13.08823872,"LONG":80.22629201},
    {"lan":80.22495587,"lat":"13.06260571","Zone":"9","ward":"109","address":"Bajanai Koil 4th  Street","Motor_Type":"5hp","region":"Central","LLAT":13.06260571,"LONG":80.22495587},
    {"lan":80.22873352,"lat":"13.061273","Zone":"9","ward":"109","address":"Gangai Amman Koil Street\n","Motor_Type":"5hp","region":"Central","LLAT":13.061273,"LONG":80.22873352},
    {"lan":80.2252478,"lat":"13.05992017","Zone":"9","ward":"109","address":"Vannier 2nd Street","Motor_Type":"5hp","region":"Central","LLAT":13.05992017,"LONG":80.2252478},
    {"lan":80.2301807,"lat":"13.06622479","Zone":"9","ward":"109","address":"Thiruvengadapuram Main Road","Motor_Type":"5hp","region":"Central","LLAT":13.06622479,"LONG":80.2301807},
    {"lan":80.22572602,"lat":"13.06687582","Zone":"9","ward":"109","address":"Thiruvallivarpuram 2nd Street\n","Motor_Type":"5hp","region":"Central","LLAT":13.06687582,"LONG":80.22572602},
    {"lan":80.22890004,"lat":"13.0606204","Zone":"9","ward":"109","address":"Krishnapuram\n","Motor_Type":"30hp","region":"Central","LLAT":13.0606204,"LONG":80.22890004},
    {"lan":80.22238915,"lat":"13.06076942","Zone":"9","ward":"109","address":"Rajaveethi\n","Motor_Type":"30hp","region":"Central","LLAT":13.06076942,"LONG":80.22238915},
    {"lan":80.22299306,"lat":"13.06106374","Zone":"9","ward":"109","address":"Kalyanapuram","Motor_Type":"30hp","region":"Central","LLAT":13.06106374,"LONG":80.22299306},
    {"lan":80.22453609,"lat":"13.06611979","Zone":"9","ward":"109","address":"Gill Nagar Extension","Motor_Type":"30hp","region":"Central","LLAT":13.06611979,"LONG":80.22453609},
    {"lan":80.27411988,"lat":"13.0562097","Zone":"9","ward":"116","address":"Bandhi Venkatesan Street","Motor_Type":"5hp Diesel Motor To Be Fixed","region":"Central","LLAT":13.0562097,"LONG":80.27411988},
    {"lan":80.24897607,"lat":"13.03903132","Zone":"9","ward":"123","address":"Periyar Salai","Motor_Type":"5hp","region":"Central","LLAT":13.03903132,"LONG":80.24897607},
    {"lan":80.24965632,"lat":"13.03865732","Zone":"9","ward":"123","address":"Ramalingeswarar Koil Street","Motor_Type":"30hp tractor motor","region":"Central","LLAT":13.03865732,"LONG":80.24965632},
    {"lan":80.26218322,"lat":"13.03514622","Zone":"9","ward":"123","address":"East Abiramapuram 1st Street","Motor_Type":"5hp","region":"Central","LLAT":13.03514622,"LONG":80.26218322},
    {"lan":80.26599091,"lat":"13.04773564","Zone":"9","ward":"119","address":"Avvai Shanmugam Salai","Motor_Type":"50HP-Tractor","region":"Central","LLAT":13.04773564,"LONG":80.26599091},
    {"lan":80.26360264,"lat":"13.04476433","Zone":"9","ward":"119","address":"P.S Sivasamy Street","Motor_Type":"5HP-Diesel","region":"Central","LLAT":13.04476433,"LONG":80.26360264},
    {"lan":80.2644956,"lat":"13.03985254","Zone":"9","ward":"119","address":"Musiri Subramaniyan Salai","Motor_Type":"50HP-Tractor","region":"Central","LLAT":13.03985254,"LONG":80.2644956},
    {"lan":80.26448101,"lat":"13.03983336","Zone":"9","ward":"119","address":"Musiri Subramaniyan Salai","Motor_Type":"50HP-Tractor","region":"Central","LLAT":13.03983336,"LONG":80.26448101},
    {"lan":80.27149045,"lat":"13.05983805","Zone":"9","ward":"114","address":"Habibullah Shahib Street","Motor_Type":"10HP-Diesel Pump","region":"Central","LLAT":13.05983805,"LONG":80.27149045},
    {"lan":80.27092326,"lat":"13.06191279","Zone":"9","ward":"114","address":"Bangaru Street","Motor_Type":"25HP-Diesel Pump","region":"Central","LLAT":13.06191279,"LONG":80.27092326},
    {"lan":80.24316775,"lat":"13.04650336","Zone":"9","ward":"117","address":"North Crescent Road","Motor_Type":"50HP-Tractor","region":"Central","LLAT":13.04650336,"LONG":80.24316775},
    {"lan":80.24178207,"lat":"13.04829845","Zone":"9","ward":"117","address":"Giri Road","Motor_Type":"50HP-Tractor","region":"Central","LLAT":13.04829845,"LONG":80.24178207},
    {"lan":80.24225437,"lat":"13.05692377","Zone":"9","ward":"110","address":"School Road","Motor_Type":"50HP-Tractor","region":"Central","LLAT":13.05692377,"LONG":80.24225437},
    {"lan":80.23687129,"lat":"13.0580452","Zone":"9","ward":"110","address":"Mahalingam Road","Motor_Type":"50HP-Tractor","region":"Central","LLAT":13.0580452,"LONG":80.23687129},
    {"lan":80.2519484,"lat":"13.05666128","Zone":"9","ward":"111","address":"Model School Road","Motor_Type":"50HP-Tractor","region":"Central","LLAT":13.05666128,"LONG":80.2519484},
    {"lan":80.25605041,"lat":"13.05047559","Zone":"9","ward":"111","address":"Avvai Shunmugam Salai","Motor_Type":"50HP-Tractor","region":"Central","LLAT":13.05047559,"LONG":80.25605041},
    {"lan":80.22140268,"lat":"13.05305715","Zone":"9","ward":"112","address":"Ganga Nagar 1st Main Road","Motor_Type":"7HP-Diesel","region":"Central","LLAT":13.05305715,"LONG":80.22140268},
    {"lan":80.22112232,"lat":"13.05673979","Zone":"9","ward":"112","address":"Bharatheeswarar Colony 1st Street","Motor_Type":"40hp Disel Motor","region":"Central","LLAT":13.05673979,"LONG":80.22112232},
    {"lan":80.21837958,"lat":"13.05421017","Zone":"9","ward":"112","address":"Vellala Street","Motor_Type":"5HP-Tractor","region":"Central","LLAT":13.05421017,"LONG":80.21837958},
    {"lan":80.23090937,"lat":"13.05885786","Zone":"9","ward":"112","address":"Nehru Street","Motor_Type":"7HP-Diesel","region":"Central","LLAT":13.05885786,"LONG":80.23090937},
    {"lan":80.23054591,"lat":"13.05786587","Zone":"9","ward":"112","address":"New Market Street","Motor_Type":"7HP-Diesel","region":"Central","LLAT":13.05786587,"LONG":80.23054591},
    {"lan":80.23015872,"lat":"13.05760491","Zone":"9","ward":"112","address":"Dr.Ambedkar Street","Motor_Type":"7HP-Diesel","region":"Central","LLAT":13.05760491,"LONG":80.23015872},
    {"lan":80.23109802,"lat":"13.06050158","Zone":"9","ward":"112","address":"Sowrashtra Nagar 10 Street","Motor_Type":"5HP-Tractor","region":"Central","LLAT":13.06050158,"LONG":80.23109802},
    {"lan":80.23110806,"lat":"13.06104371","Zone":"9","ward":"112","address":"Sowrashtra Nagar 9th  Street","Motor_Type":"5HP-Tractor","region":"Central","LLAT":13.06104371,"LONG":80.23110806},
    {"lan":80.23123817,"lat":"13.06256274","Zone":"9","ward":"112","address":"Sowrashtra Nagar 7th  Street","Motor_Type":"5HP-Tractor","region":"Central","LLAT":13.06256274,"LONG":80.23123817},
    {"lan":80.2312619,"lat":"13.06291993","Zone":"9","ward":"112","address":"Sowrashtra Nagar 6th  Street","Motor_Type":"5HP-Tractor","region":"Central","LLAT":13.06291993,"LONG":80.2312619},
    {"lan":80.27598181,"lat":"13.05004228","Zone":"9","ward":"120","address":"Gajapathy 1st Lane","Motor_Type":"5hp Oil Engine Motor","region":"Central","LLAT":13.05004228,"LONG":80.27598181},
    {"lan":80.26806988,"lat":"13.04105961","Zone":"9","ward":"121","address":"Thiru. Vi. Ka High Road","Motor_Type":"100HP Motor","region":"Central","LLAT":13.04105961,"LONG":80.26806988},
    {"lan":80.26834262,"lat":"13.0417445","Zone":"9","ward":"121","address":"Thiru. Vi. Ka High Road","Motor_Type":"100HP Motor","region":"Central","LLAT":13.0417445,"LONG":80.26834262},
    {"lan":80.26962064,"lat":"13.04186318","Zone":"9","ward":"121","address":"Balakrishna Cross Street","Motor_Type":"SubMersible 45 HP Motor","region":"Central","LLAT":13.04186318,"LONG":80.26962064},
    {"lan":80.27292832,"lat":"13.05297367","Zone":"9","ward":"115","address":"Dr. Besant Road","Motor_Type":"25hp Tractor Motor","region":"Central","LLAT":13.05297367,"LONG":80.27292832},
    {"lan":80.27017528,"lat":"13.05500265","Zone":"9","ward":"115","address":"Manickam (M) Street","Motor_Type":"12 hp Tractor Motor","region":"Central","LLAT":13.05500265,"LONG":80.27017528},
    {"lan":80.25242628,"lat":"13.02422174","Zone":"9","ward":"122","address":"Pughs Road","Motor_Type":"100hp Tractor Motor","region":"Central","LLAT":13.02422174,"LONG":80.25242628},
    {"lan":80.23138231,"lat":"13.05219168","Zone":"9","ward":"113","address":"Mambalam High Road","Motor_Type":"20HP","region":"Central","LLAT":13.05219168,"LONG":80.23138231},
    {"lan":80.23064141,"lat":"13.04936427","Zone":"9","ward":"113","address":"Mambalam High Road","Motor_Type":"20HP","region":"Central","LLAT":13.04936427,"LONG":80.23064141},
    {"lan":80.23386966,"lat":"13.05089709","Zone":"9","ward":"113","address":"North Ushman Road","Motor_Type":"100HP","region":"Central","LLAT":13.05089709,"LONG":80.23386966},
    {"lan":80.23438667,"lat":"13.04808337","Zone":"9","ward":"113","address":"Thilak St Extn.","Motor_Type":"25HP","region":"Central","LLAT":13.04808337,"LONG":80.23438667},
    {"lan":80.25086502,"lat":"13.05275154","Zone":"9","ward":"113","address":"Mahathma Gandhi Salai","Motor_Type":"100HP","region":"Central","LLAT":13.05275154,"LONG":80.25086502},
    {"lan":80.25052137,"lat":"13.0530173","Zone":"9","ward":"113","address":"Mahathma Gandhi Salai","Motor_Type":"100HP","region":"Central","LLAT":13.0530173,"LONG":80.25052137},
    {"lan":80.2476014,"lat":"13.05989132","Zone":"9","ward":"113","address":"Mahathma Gandhi Salai","Motor_Type":"100HP","region":"Central","LLAT":13.05989132,"LONG":80.2476014},
    {"lan":80.24712251,"lat":"13.06089353","Zone":"9","ward":"113","address":"Mahathma Gandhi Salai","Motor_Type":"100HP","region":"Central","LLAT":13.06089353,"LONG":80.24712251},
    {"lan":80.2496882,"lat":"13.05451437","Zone":"9","ward":"113","address":"Mahathma Gandhi Salai","Motor_Type":"100HP","region":"Central","LLAT":13.05451437,"LONG":80.2496882},
    {"lan":80.24557104,"lat":"13.0549539","Zone":"9","ward":"113","address":"Josier Street","Motor_Type":"100HP","region":"Central","LLAT":13.0549539,"LONG":80.24557104},
    {"lan":80.24307153,"lat":"13.0548028","Zone":"9","ward":"113","address":"Veerabadran Street","Motor_Type":"100HP","region":"Central","LLAT":13.0548028,"LONG":80.24307153},
    {"lan":80.2457515,"lat":"13.05566592","Zone":"9","ward":"113","address":"Thirumurthy Nagar Main Road","Motor_Type":"50HP","region":"Central","LLAT":13.05566592,"LONG":80.2457515},
    {"lan":80.24240067,"lat":"13.05941927","Zone":"9","ward":"113","address":"Valluvar Kottam High Road","Motor_Type":"100HP","region":"Central","LLAT":13.05941927,"LONG":80.24240067},
    {"lan":80.24230291,"lat":"13.06048518","Zone":"9","ward":"113","address":"East Mada Street","Motor_Type":"10HP","region":"Central","LLAT":13.06048518,"LONG":80.24230291},
    {"lan":80.24217487,"lat":"13.05957762","Zone":"9","ward":"113","address":"East Mada Street","Motor_Type":"10HP","region":"Central","LLAT":13.05957762,"LONG":80.24217487},
    {"lan":80.23907248,"lat":"13.05180309","Zone":"9","ward":"113","address":"Saradambal Street","Motor_Type":"10HP","region":"Central","LLAT":13.05180309,"LONG":80.23907248},
    {"lan":80.26076523,"lat":"13.05116051","Zone":"9","ward":"118","address":"Ammaiappan Lane","Motor_Type":"10","region":"Central","LLAT":13.05116051,"LONG":80.26076523},
    {"lan":80.25645818,"lat":"13.03906228","Zone":"9","ward":"118","address":"Murrays Gate Road","Motor_Type":"25","region":"Central","LLAT":13.03906228,"LONG":80.25645818},
    {"lan":80.25500003,"lat":"13.03933202","Zone":"9","ward":"118","address":"Maharaja Surya Road","Motor_Type":"25","region":"Central","LLAT":13.03933202,"LONG":80.25500003},
    {"lan":80.2503255,"lat":"13.03967126","Zone":"9","ward":"118","address":"Poes Road","Motor_Type":"5","region":"Central","LLAT":13.03967126,"LONG":80.2503255},
    {"lan":80.25634834,"lat":"13.04106419","Zone":"9","ward":"118","address":"Sriman Srinivasan Road","Motor_Type":"25","region":"Central","LLAT":13.04106419,"LONG":80.25634834},
    {"lan":80.25835386,"lat":"13.04089573","Zone":"9","ward":"118","address":"T.T.K Road","Motor_Type":"25hp","region":"Central","LLAT":13.04089573,"LONG":80.25835386},
    {"lan":80.25717712,"lat":"13.03893554","Zone":"9","ward":"118","address":"T.T.K Road","Motor_Type":"25hp","region":"Central","LLAT":13.03893554,"LONG":80.25717712},
    {"lan":80.26146763,"lat":"13.04816608","Zone":"9","ward":"118","address":"Avvai Shanmugam Salai","Motor_Type":"5hp","region":"Central","LLAT":13.04816608,"LONG":80.26146763},
    {"lan":80.19894528,"lat":"13.04537794","Zone":"10","ward":"136","address":"80 Feet Road","Motor_Type":"Diseal","region":"Central","LLAT":13.04537794,"LONG":80.19894528},
    {"lan":80.20358658,"lat":"13.04777406","Zone":"10","ward":"136","address":"Meeran Sahib Street","Motor_Type":"2HP","region":"Central","LLAT":13.04777406,"LONG":80.20358658},
    {"lan":80.1927303,"lat":"13.07464905","Zone":"10","ward":"127","address":"Thiruvalluvar Street","Motor_Type":"10hp","region":"Central","LLAT":13.07464905,"LONG":80.1927303},
    {"lan":80.19457231,"lat":"13.0747626","Zone":"10","ward":"127","address":"Gandhi Street","Motor_Type":"10hp","region":"Central","LLAT":13.0747626,"LONG":80.19457231},
    {"lan":80.21347422,"lat":"13.02978387","Zone":"10","ward":"139","address":"R.V.Nagar 69th Street","Motor_Type":"10hp","region":"Central","LLAT":13.02978387,"LONG":80.21347422},
    {"lan":80.23473597,"lat":"13.03151963","Zone":"10","ward":"141","address":"Manohar Street","Motor_Type":"5hp","region":"Central","LLAT":13.03151963,"LONG":80.23473597},
    {"lan":80.22890127,"lat":"13.03270499","Zone":"10","ward":"141","address":"Muthurangan Salai","Motor_Type":"10hp","region":"Central","LLAT":13.03270499,"LONG":80.22890127},
    {"lan":80.23298696,"lat":"13.0310989","Zone":"10","ward":"141","address":"South Dhandapani Street","Motor_Type":"10hp","region":"Central","LLAT":13.0310989,"LONG":80.23298696},
    {"lan":80.2331222,"lat":"13.03368662","Zone":"10","ward":"141","address":"South Dhandapani Street","Motor_Type":"10hp","region":"Central","LLAT":13.03368662,"LONG":80.2331222},
    {"lan":80.23036063,"lat":"13.03478313","Zone":"10","ward":"141","address":"South Usman Road","Motor_Type":"10hp","region":"Central","LLAT":13.03478313,"LONG":80.23036063},
    {"lan":80.22948379,"lat":"13.03026998","Zone":"10","ward":"141","address":"New Boag Road","Motor_Type":"10hp","region":"Central","LLAT":13.03026998,"LONG":80.22948379},
    {"lan":80.22721374,"lat":"13.02336946","Zone":"10","ward":"142","address":"Bazaar Road","Motor_Type":"20hp","region":"Central","LLAT":13.02336946,"LONG":80.22721374},
    {"lan":80.22231337,"lat":"13.01837011","Zone":"10","ward":"142","address":"Salavaithurai","Motor_Type":"10hp","region":"Central","LLAT":13.01837011,"LONG":80.22231337},
    {"lan":80.18666938,"lat":"13.04602511","Zone":"10","ward":"128","address":"1 Cross Street - Alwarthirunagar Annexe","Motor_Type":"Diesel Pump","region":"Central","LLAT":13.04602511,"LONG":80.18666938},
    {"lan":80.19043367,"lat":"13.05299207","Zone":"10","ward":"128","address":"1st Street - Elango Nagar","Motor_Type":"10hp","region":"Central","LLAT":13.05299207,"LONG":80.19043367},
    {"lan":80.19341616,"lat":"13.05435198","Zone":"10","ward":"128","address":"2nd Street - Saibaba Colony","Motor_Type":"Diesel Pump","region":"Central","LLAT":13.05435198,"LONG":80.19341616},
    {"lan":80.19383732,"lat":"13.054399","Zone":"10","ward":"128","address":"3rd Street - Saibaba Colony","Motor_Type":"Diesel Pump","region":"Central","LLAT":13.054399,"LONG":80.19383732},
    {"lan":80.19246745,"lat":"13.04662206","Zone":"10","ward":"128","address":"Arcot Road","Motor_Type":"Diesel","region":"Central","LLAT":13.04662206,"LONG":80.19246745},
    {"lan":80.19590862,"lat":"13.0475033","Zone":"10","ward":"128","address":"Kamarajar Salai","Motor_Type":"Diesel Pump","region":"Central","LLAT":13.0475033,"LONG":80.19590862},
    {"lan":80.19163452,"lat":"13.05159981","Zone":"10","ward":"128","address":"Main Road - Sanjay Gandhi Nagar","Motor_Type":"Diesel Pump","region":"Central","LLAT":13.05159981,"LONG":80.19163452},
    {"lan":80.19341234,"lat":"13.05203389","Zone":"10","ward":"128","address":"2nd Street - Sornambigai Nagar","Motor_Type":"Diesel Pump","region":"Central","LLAT":13.05203389,"LONG":80.19341234},
    {"lan":80.19338959,"lat":"13.05125282","Zone":"10","ward":"128","address":"2nd Street - Sornambigai Nagar","Motor_Type":"Diesel Pump","region":"Central","LLAT":13.05125282,"LONG":80.19338959},
    {"lan":80.19232094,"lat":"13.04810956","Zone":"10","ward":"128","address":"Kaliamman Koil Street","Motor_Type":"Diesel Pump","region":"Central","LLAT":13.04810956,"LONG":80.19232094},
    {"lan":80.19095264,"lat":"13.05155428","Zone":"10","ward":"128","address":"2nd Street - Sanjay Gandhi Nagar","Motor_Type":"Diesel Pump","region":"Central","LLAT":13.05155428,"LONG":80.19095264},
    {"lan":80.19215457,"lat":"13.05319561","Zone":"10","ward":"128","address":"C.R. Ramakrishnapuram Phase-IV","Motor_Type":"Diesel","region":"Central","LLAT":13.05319561,"LONG":80.19215457},
    {"lan":80.18873333,"lat":"13.05410169","Zone":"10","ward":"128","address":"Errikkarai Street","Motor_Type":"Diesel Pump","region":"Central","LLAT":13.05410169,"LONG":80.18873333},
    {"lan":80.18691685,"lat":"13.0546733","Zone":"10","ward":"128","address":"Errikkarai Street","Motor_Type":"Diesel Pump","region":"Central","LLAT":13.0546733,"LONG":80.18691685},
    {"lan":80.19050351,"lat":"13.05345967","Zone":"10","ward":"128","address":"2nd Street - Elango Nagar","Motor_Type":"Diesel Pump","region":"Central","LLAT":13.05345967,"LONG":80.19050351},
    {"lan":80.19046641,"lat":"13.0538673","Zone":"10","ward":"128","address":"3rd Street - Elango Nagar","Motor_Type":"Diesel Pump","region":"Central","LLAT":13.0538673,"LONG":80.19046641},
    {"lan":80.19452894,"lat":"13.05269666","Zone":"10","ward":"128","address":"Co-Op Society Colony","Motor_Type":"Diesel Pump","region":"Central","LLAT":13.05269666,"LONG":80.19452894},
    {"lan":80.19298517,"lat":"13.05429274","Zone":"10","ward":"128","address":"1st Street - Saibaba Colony","Motor_Type":"Diesel Pump","region":"Central","LLAT":13.05429274,"LONG":80.19298517},
    {"lan":80.20762401,"lat":"13.05427991","Zone":"10","ward":"130","address":"Kumaran Colony Main Road","Motor_Type":"50hp","region":"Central","LLAT":13.05427991,"LONG":80.20762401},
    {"lan":80.20846518,"lat":"13.0493463","Zone":"10","ward":"130","address":"N.S.K Salai","Motor_Type":"20hp","region":"Central","LLAT":13.0493463,"LONG":80.20846518},
    {"lan":80.21096624,"lat":"13.04979137","Zone":"10","ward":"130","address":"N.S.K Salai","Motor_Type":"20hp","region":"Central","LLAT":13.04979137,"LONG":80.21096624},
    {"lan":80.21552307,"lat":"13.05194643","Zone":"10","ward":"130","address":"Pillaiyar Koil Street","Motor_Type":"20hp","region":"Central","LLAT":13.05194643,"LONG":80.21552307},
    {"lan":80.21031654,"lat":"13.05460208","Zone":"10","ward":"130","address":"Valliammal Street","Motor_Type":"2hp","region":"Central","LLAT":13.05460208,"LONG":80.21031654},
    {"lan":80.21454951,"lat":"13.04662771","Zone":"10","ward":"131","address":"21st Avenue","Motor_Type":"5hp","region":"Central","LLAT":13.04662771,"LONG":80.21454951},
    {"lan":80.21746106,"lat":"13.04388109","Zone":"10","ward":"131","address":"4th Avenue","Motor_Type":"5hp","region":"Central","LLAT":13.04388109,"LONG":80.21746106},
    {"lan":80.21789816,"lat":"13.04017448","Zone":"10","ward":"131","address":"5th Avenue, Ashok Nagar","Motor_Type":"10hp","region":"Central","LLAT":13.04017448,"LONG":80.21789816},
    {"lan":80.21463328,"lat":"13.04963248","Zone":"10","ward":"131","address":"Duraisamy Road","Motor_Type":"5hp","region":"Central","LLAT":13.04963248,"LONG":80.21463328},
    {"lan":80.21627548,"lat":"13.04689526","Zone":"10","ward":"131","address":"Subrarayan Nagar Viii Street","Motor_Type":"10hp","region":"Central","LLAT":13.04689526,"LONG":80.21627548},
    {"lan":80.2176439,"lat":"13.04605582","Zone":"10","ward":"131","address":"Subrarayan Nagar Vi Street","Motor_Type":"10hp","region":"Central","LLAT":13.04605582,"LONG":80.2176439},
    {"lan":80.21891406,"lat":"13.04673909","Zone":"10","ward":"131","address":"Karnan Street","Motor_Type":"5hp","region":"Central","LLAT":13.04673909,"LONG":80.21891406},
    {"lan":80.22250697,"lat":"13.04610187","Zone":"10","ward":"131","address":"Kannadasan Street","Motor_Type":"5hp","region":"Central","LLAT":13.04610187,"LONG":80.22250697},
    {"lan":80.22147478,"lat":"13.0477606","Zone":"10","ward":"131","address":"Vathiyar Thottam Main Road","Motor_Type":"10hp","region":"Central","LLAT":13.0477606,"LONG":80.22147478},
    {"lan":80.21485673,"lat":"13.04464066","Zone":"10","ward":"131","address":"21st Avenue","Motor_Type":"10hp","region":"Central","LLAT":13.04464066,"LONG":80.21485673},
    {"lan":80.22961022,"lat":"13.0465264","Zone":"10","ward":"132","address":"Parankusapuram Street","Motor_Type":"100hp","region":"Central","LLAT":13.0465264,"LONG":80.22961022},
    {"lan":80.22814455,"lat":"13.04772868","Zone":"10","ward":"132","address":"Aziz Nagar Ii Street","Motor_Type":"100hp","region":"Central","LLAT":13.04772868,"LONG":80.22814455},
    {"lan":80.22990906,"lat":"13.0480147","Zone":"10","ward":"132","address":"Railway Border Road","Motor_Type":"100hp","region":"Central","LLAT":13.0480147,"LONG":80.22990906},
    {"lan":80.22807433,"lat":"13.04494084","Zone":"10","ward":"132","address":"Subramania Nagar I Street","Motor_Type":"100hp","region":"Central","LLAT":13.04494084,"LONG":80.22807433},
    {"lan":80.22940776,"lat":"13.04526215","Zone":"10","ward":"132","address":"Subramania Nagar Ii Street","Motor_Type":"100hp","region":"Central","LLAT":13.04526215,"LONG":80.22940776},
    {"lan":80.22823323,"lat":"13.04827174","Zone":"10","ward":"132","address":"Aziz Nagar I Street","Motor_Type":"100hp","region":"Central","LLAT":13.04827174,"LONG":80.22823323},
    {"lan":80.22784203,"lat":"13.04687845","Zone":"10","ward":"132","address":"Parankusapuram Street","Motor_Type":"100hp","region":"Central","LLAT":13.04687845,"LONG":80.22784203},
    {"lan":80.22830984,"lat":"13.04610505","Zone":"10","ward":"132","address":"Subramania Nagar Cross Street","Motor_Type":"100hp","region":"Central","LLAT":13.04610505,"LONG":80.22830984},
    {"lan":80.24091087,"lat":"13.04369313","Zone":"10","ward":"133","address":"Dr. Nair Road","Motor_Type":"Diseal Pump","region":"Central","LLAT":13.04369313,"LONG":80.24091087},
    {"lan":80.23244545,"lat":"13.0430228","Zone":"10","ward":"133","address":"Govindhu Street","Motor_Type":"Diseal Pump","region":"Central","LLAT":13.0430228,"LONG":80.23244545},
    {"lan":80.23249117,"lat":"13.04355891","Zone":"10","ward":"133","address":"Nathamuni Street","Motor_Type":"Diseal Pump","region":"Central","LLAT":13.04355891,"LONG":80.23249117},
    {"lan":80.23934045,"lat":"13.04435432","Zone":"10","ward":"133","address":"Kamalabai Street","Motor_Type":"Diseal Pump","region":"Central","LLAT":13.04435432,"LONG":80.23934045},
    {"lan":80.23810163,"lat":"13.03933011","Zone":"10","ward":"133","address":"Masilamani Street","Motor_Type":"Diseal Pump","region":"Central","LLAT":13.03933011,"LONG":80.23810163},
    {"lan":80.23840359,"lat":"13.04384155","Zone":"10","ward":"133","address":"Rajamannar Street","Motor_Type":"Diseal Pump","region":"Central","LLAT":13.04384155,"LONG":80.23840359},
    {"lan":80.23787568,"lat":"13.04534972","Zone":"10","ward":"133","address":"Singaram Street","Motor_Type":"Diseal Pump","region":"Central","LLAT":13.04534972,"LONG":80.23787568},
    {"lan":80.23802955,"lat":"13.04596625","Zone":"10","ward":"133","address":"Yogambal Street","Motor_Type":"Diseal Pump","region":"Central","LLAT":13.04596625,"LONG":80.23802955},
    {"lan":80.22693107,"lat":"13.03822159","Zone":"10","ward":"134","address":"Babu Rajendra Prasad Ist Street","Motor_Type":"10hp","region":"Central","LLAT":13.03822159,"LONG":80.22693107},
    {"lan":80.22219811,"lat":"13.03590723","Zone":"10","ward":"134","address":"Lake View Road","Motor_Type":"100hp","region":"Central","LLAT":13.03590723,"LONG":80.22219811},
    {"lan":80.22637974,"lat":"13.03945751","Zone":"10","ward":"134","address":"Narasimman Street","Motor_Type":"10hp","region":"Central","LLAT":13.03945751,"LONG":80.22637974},
    {"lan":80.2227003,"lat":"13.03717533","Zone":"10","ward":"134","address":"Thambiah Road","Motor_Type":"10hp","region":"Central","LLAT":13.03717533,"LONG":80.2227003},
    {"lan":80.22445179,"lat":"13.03914113","Zone":"10","ward":"134","address":"Station Road","Motor_Type":"10hp","region":"Central","LLAT":13.03914113,"LONG":80.22445179},
    {"lan":80.20994739,"lat":"13.04485722","Zone":"10","ward":"135","address":"15th Sector 101 Streetst","Motor_Type":"10hp","region":"Central","LLAT":13.04485722,"LONG":80.20994739},
    {"lan":80.21050937,"lat":"13.04512064","Zone":"10","ward":"135","address":"15th Sector 95th Street","Motor_Type":"10hp","region":"Central","LLAT":13.04512064,"LONG":80.21050937},
    {"lan":80.20940611,"lat":"13.04476619","Zone":"10","ward":"135","address":"15th Sector 94th Street","Motor_Type":"10hp","region":"Central","LLAT":13.04476619,"LONG":80.20940611},
    {"lan":80.21123084,"lat":"13.04521143","Zone":"10","ward":"135","address":"15th Sector 98th Street","Motor_Type":"Deploying Tractor Motor 10hp","region":"Central","LLAT":13.04521143,"LONG":80.21123084},
    {"lan":80.20998074,"lat":"13.04627267","Zone":"10","ward":"135","address":"15th Sector 97th Street","Motor_Type":"10hp","region":"Central","LLAT":13.04627267,"LONG":80.20998074},
    {"lan":80.20911212,"lat":"13.04320102","Zone":"10","ward":"135","address":"Kamaraj Salai (17th Avenue)","Motor_Type":"10hp","region":"Central","LLAT":13.04320102,"LONG":80.20911212},
    {"lan":80.20900592,"lat":"13.04151448","Zone":"10","ward":"135","address":"86th Street","Motor_Type":"10hp","region":"Central","LLAT":13.04151448,"LONG":80.20900592},
    {"lan":80.21420731,"lat":"13.03525462","Zone":"10","ward":"135","address":"48th Street","Motor_Type":"10hp","region":"Central","LLAT":13.03525462,"LONG":80.21420731},
    {"lan":80.22510228,"lat":"13.03084766","Zone":"10","ward":"140","address":"Devanathan Colony","Motor_Type":"Diesel","region":"Central","LLAT":13.03084766,"LONG":80.22510228},
    {"lan":80.22469096,"lat":"13.03358632","Zone":"10","ward":"140","address":"Ellaiamman Koil Street","Motor_Type":"Diesel","region":"Central","LLAT":13.03358632,"LONG":80.22469096},
    {"lan":80.2254346,"lat":"13.03088102","Zone":"10","ward":"140","address":"K.R. Koil Street","Motor_Type":"Diesel","region":"Central","LLAT":13.03088102,"LONG":80.2254346},
    {"lan":80.22451755,"lat":"13.03405315","Zone":"10","ward":"140","address":"Sambangi Street","Motor_Type":"Diesel","region":"Central","LLAT":13.03405315,"LONG":80.22451755},
    {"lan":80.22459968,"lat":"13.03159749","Zone":"10","ward":"140","address":"Vadivelpuram","Motor_Type":"Diesel","region":"Central","LLAT":13.03159749,"LONG":80.22459968},
    {"lan":80.20730933,"lat":"13.03115707","Zone":"10","ward":"138","address":"Mangai Nagar 1st Street","Motor_Type":"10hp","region":"Central","LLAT":13.03115707,"LONG":80.20730933},
    {"lan":80.20734156,"lat":"13.0315742","Zone":"10","ward":"138","address":"Mangai Nagar 2nd Street","Motor_Type":"10hp","region":"Central","LLAT":13.0315742,"LONG":80.20734156},
    {"lan":80.20882028,"lat":"13.03029775","Zone":"10","ward":"138","address":"Jafferkhanpet Pillayar Koil Street","Motor_Type":"10hp","region":"Central","LLAT":13.03029775,"LONG":80.20882028},
    {"lan":80.20897795,"lat":"13.02932827","Zone":"10","ward":"138","address":"Anjugam Nagar 2nd Street","Motor_Type":"10hp","region":"Central","LLAT":13.02932827,"LONG":80.20897795},
    {"lan":80.20908519,"lat":"13.02972215","Zone":"10","ward":"138","address":"Anjugam Nagar 1st Street","Motor_Type":"10hp","region":"Central","LLAT":13.02972215,"LONG":80.20908519},
    {"lan":80.20745709,"lat":"13.03230399","Zone":"10","ward":"138","address":"Bharathidasan Colony Nehru Avenue","Motor_Type":"20hp","region":"Central","LLAT":13.03230399,"LONG":80.20745709},
    {"lan":80.20938019,"lat":"13.03203641","Zone":"10","ward":"138","address":"Bharathidasan Colony Main Road","Motor_Type":"30hp","region":"Central","LLAT":13.03203641,"LONG":80.20938019},
    {"lan":80.206714,"lat":"13.03214026","Zone":"10","ward":"138","address":"Bharathidasan Colony 4th Street","Motor_Type":"20hp","region":"Central","LLAT":13.03214026,"LONG":80.206714},
    {"lan":80.18996421,"lat":"13.03245789","Zone":"10","ward":"137","address":"Rajiv Gandhi Nagar Moovendar Cross Street","Motor_Type":"10hp","region":"Central","LLAT":13.03245789,"LONG":80.18996421},
    {"lan":80.18999506,"lat":"13.03211941","Zone":"10","ward":"137","address":"Rajiv Gandhi Nagar Moovendar Street","Motor_Type":"10hp","region":"Central","LLAT":13.03211941,"LONG":80.18999506},
    {"lan":80.19342844,"lat":"13.07568714","Zone":"10","ward":"127","address":"Barathiar Street","Motor_Type":"10hp","region":"Central","LLAT":13.07568714,"LONG":80.19342844},
    {"lan":80.16332897,"lat":"13.03997426","Zone":"11","ward":"150","address":"GANESH NAGAR MAIN SALAI","Motor_Type":"5HP-Diesel","region":"South","LLAT":13.03997426,"LONG":80.16332897},
    {"lan":80.16693232,"lat":"13.04086637","Zone":"11","ward":"150","address":"Ekambaram Industrial Estate 7th Street","Motor_Type":"5HP-Diesel","region":"South","LLAT":13.04086637,"LONG":80.16693232},
    {"lan":80.15621169,"lat":"13.03481412","Zone":"11","ward":"151","address":"ARCOT ROAD","Motor_Type":"100HP-Diesel Pump","region":"South","LLAT":13.03481412,"LONG":80.15621169},
    {"lan":80.17232085,"lat":"13.03609","Zone":"11","ward":"151","address":"Svs Nagar 1st Main Road","Motor_Type":"100HP-Diesel Pump","region":"South","LLAT":13.03609,"LONG":80.17232085},
    {"lan":80.16477531,"lat":"13.03820768","Zone":"11","ward":"151","address":"ARCOT ROAD","Motor_Type":"25HP-Diesel Pump","region":"South","LLAT":13.03820768,"LONG":80.16477531},
    {"lan":80.17912516,"lat":"13.06783061","Zone":"11","ward":"144","address":"Varalakshmi Nagar 3rd Main Road","Motor_Type":"Underground dewatering pumping station 25hp","region":"South","LLAT":13.06783061,"LONG":80.17912516},
    {"lan":80.17053623,"lat":"13.06426784","Zone":"11","ward":"144","address":"POOVAI HIGH ROAD","Motor_Type":"TRACTOR MOTOR-25HP Diesel ENGINE","region":"South","LLAT":13.06426784,"LONG":80.17053623},
    {"lan":80.16378421,"lat":"13.04612767","Zone":"11","ward":"146","address":"BHARATHIDASAN NAGAR 10TH STREET","Motor_Type":"5HP-Diesel","region":"South","LLAT":13.04612767,"LONG":80.16378421},
    {"lan":80.16138679,"lat":"13.05326818","Zone":"11","ward":"146","address":"Iyyappa Nagar 5th Street","Motor_Type":"10HP-Diesel Pump","region":"South","LLAT":13.05326818,"LONG":80.16138679},
    {"lan":80.17211683,"lat":"13.05606317","Zone":"11","ward":"147","address":"D.S. Nagar","Motor_Type":"10HP-Diesel Pump","region":"South","LLAT":13.05606317,"LONG":80.17211683},
    {"lan":80.16362996,"lat":"13.04230558","Zone":"11","ward":"147","address":"ALAPAKKAM MAIN ROAD (DIV 147)","Motor_Type":"10HP-Diesel Pump","region":"South","LLAT":13.04230558,"LONG":80.16362996},
    {"lan":80.18620919,"lat":"13.03169585","Zone":"11","ward":"155","address":"KARPAGAMBAL NAGAR 2ND STREET","Motor_Type":"10HP","region":"South","LLAT":13.03169585,"LONG":80.18620919},
    {"lan":80.18833067,"lat":"13.02652331","Zone":"11","ward":"155","address":"BAKTHI VEDANTHA 1ST AVENUE","Motor_Type":"10HP","region":"South","LLAT":13.02652331,"LONG":80.18833067},
    {"lan":80.18837832,"lat":"13.02651518","Zone":"11","ward":"155","address":"BAKTHI VEDANTHA 1ST AVENUE","Motor_Type":"10HP","region":"South","LLAT":13.02651518,"LONG":80.18837832},
    {"lan":80.18477585,"lat":"13.03421589","Zone":"11","ward":"155","address":"KOTHARI NAGAR 6TH STREET","Motor_Type":"10HP","region":"South","LLAT":13.03421589,"LONG":80.18477585},
    {"lan":80.16737643,"lat":"13.07356896","Zone":"11","ward":"143","address":"Sri Ram Nagar Main Road","Motor_Type":"10hp","region":"South","LLAT":13.07356896,"LONG":80.16737643},
    {"lan":80.16386074,"lat":"13.07859312","Zone":"11","ward":"143","address":"14TH CROSS STREET","Motor_Type":"5hp","region":"South","LLAT":13.07859312,"LONG":80.16386074},
    {"lan":80.17216661,"lat":"13.07631541","Zone":"11","ward":"143","address":"9TH  CROSS STREET","Motor_Type":"25 hp motor","region":"South","LLAT":13.07631541,"LONG":80.17216661},
    {"lan":80.16691007,"lat":"13.06832077","Zone":"11","ward":"143","address":"Gajalakshmi Nagar Road","Motor_Type":"10hp Electrical Motor,Tractor","region":"South","LLAT":13.06832077,"LONG":80.16691007},
    {"lan":80.16556223,"lat":"13.06756631","Zone":"11","ward":"143","address":"Gajalakshmi Nagar Main Road","Motor_Type":"7hp","region":"South","LLAT":13.06756631,"LONG":80.16556223},
    {"lan":80.16854726,"lat":"13.07340455","Zone":"11","ward":"143","address":"Sri Ram Nagar 1st Street","Motor_Type":"10hp","region":"South","LLAT":13.07340455,"LONG":80.16854726},
    {"lan":80.16697055,"lat":"13.06884849","Zone":"11","ward":"143","address":"Gajalakshmi Nagar Road","Motor_Type":"5hp","region":"South","LLAT":13.06884849,"LONG":80.16697055},
    {"lan":80.16470987,"lat":"13.02559194","Zone":"11","ward":"153","address":"SAKTHI NAGAR GANESH AVENUE 8TH STREET","Motor_Type":"5HP-Diesel","region":"South","LLAT":13.02559194,"LONG":80.16470987},
    {"lan":80.18336354,"lat":"13.06919214","Zone":"11","ward":"145","address":"PALLAVA NAGAR PILLIYAR KOIL STREET","Motor_Type":"5HP-Diesel","region":"South","LLAT":13.06919214,"LONG":80.18336354},
    {"lan":80.18103481,"lat":"13.06548305","Zone":"11","ward":"145","address":"Ambika Nagar Main Road","Motor_Type":"5HP-Diesel","region":"South","LLAT":13.06548305,"LONG":80.18103481},
    {"lan":80.18663593,"lat":"13.05491817","Zone":"11","ward":"148","address":"Periyar Nagar Annex","Motor_Type":"5HP-Diesel","region":"South","LLAT":13.05491817,"LONG":80.18663593},
    {"lan":80.1794096,"lat":"13.0588471","Zone":"11","ward":"148","address":"JEEVA STREET","Motor_Type":"4HP-Diesel","region":"South","LLAT":13.0588471,"LONG":80.1794096},
    {"lan":80.1804901,"lat":"13.0582668","Zone":"11","ward":"148","address":"GOVARTHANA NAGAR 7TH STREET","Motor_Type":"5HP-Diesel","region":"South","LLAT":13.0582668,"LONG":80.1804901},
    {"lan":80.18614927,"lat":"13.04449581","Zone":"11","ward":"152","address":"THIRUVALLUVAR SALAI","Motor_Type":"30 HP Electrical Motor Ward_152","region":"South","LLAT":13.04449581,"LONG":80.18614927},
    {"lan":80.18258771,"lat":"13.0396988","Zone":"11","ward":"152","address":"JANAKI NAGAR 6TH STREET","Motor_Type":"5 HP Diesel Motor Ward_152","region":"South","LLAT":13.0396988,"LONG":80.18258771},
    {"lan":80.17803224,"lat":"13.0478245","Zone":"11","ward":"149","address":"KAMARAJ AVENUE","Motor_Type":"30hp Tractor Motor","region":"South","LLAT":13.0478245,"LONG":80.17803224},
    {"lan":80.18318668,"lat":"13.04387015","Zone":"11","ward":"149","address":"PALANIAPPA NAGAR MAIN RD.","Motor_Type":"5hp Petrol Motor","region":"South","LLAT":13.04387015,"LONG":80.18318668},
    {"lan":80.17902496,"lat":"13.04392279","Zone":"11","ward":"149","address":"VENKATESHWARA NAGAR MAIN ROAD","Motor_Type":"5hp Petrol Motor","region":"South","LLAT":13.04392279,"LONG":80.17902496},
    {"lan":80.16583705,"lat":"13.01278615","Zone":"12","ward":"157","address":"BHEL  NAGAR 1ST MAIN ROAD","Motor_Type":"100HP-Diesel Pump","region":"South","LLAT":13.01278615,"LONG":80.16583705},
    {"lan":80.1658354,"lat":"13.01556746","Zone":"12","ward":"157","address":"BHEL  NAGAR 1ST MAIN ROAD","Motor_Type":"100HP-Diesel Pump","region":"South","LLAT":13.01556746,"LONG":80.1658354},
    {"lan":80.16584008,"lat":"13.01560344","Zone":"12","ward":"157","address":"BHEL  NAGAR 1ST MAIN ROAD","Motor_Type":"TRACTOR MOTOR-25HP Diesel ENGINE","region":"South","LLAT":13.01560344,"LONG":80.16584008},
    {"lan":80.16584799,"lat":"13.01560735","Zone":"12","ward":"157","address":"BHEL  NAGAR 1ST MAIN ROAD","Motor_Type":"TRACTOR MOTOR-25HP Diesel ENGINE","region":"South","LLAT":13.01560735,"LONG":80.16584799},
    {"lan":80.16578681,"lat":"13.01282884","Zone":"12","ward":"157","address":"BHEL  NAGAR 1ST MAIN ROAD","Motor_Type":"TRACTOR MOTOR-25HP Diesel ENGINE","region":"South","LLAT":13.01282884,"LONG":80.16578681},
    {"lan":80.16579068,"lat":"13.01284082","Zone":"12","ward":"157","address":"BHEL  NAGAR 1ST MAIN ROAD","Motor_Type":"TRACTOR MOTOR-25HP Diesel ENGINE","region":"South","LLAT":13.01284082,"LONG":80.16579068},
    {"lan":80.16923111,"lat":"13.01596832","Zone":"12","ward":"157","address":"C.R.R Puram L&T Colony Extension","Motor_Type":"TRACTOR MOTOR-25HP Diesel ENGINE","region":"South","LLAT":13.01596832,"LONG":80.16923111},
    {"lan":80.16921547,"lat":"13.01597593","Zone":"12","ward":"157","address":"C.R.R Puram L&T Colony Extension","Motor_Type":"TRACTOR MOTOR-25HP Diesel ENGINE","region":"South","LLAT":13.01597593,"LONG":80.16921547},
    {"lan":80.17270447,"lat":"13.01786378","Zone":"12","ward":"157","address":"C.R.R Puram L&T Colony Main Road","Motor_Type":"100HP-Diesel Pump","region":"South","LLAT":13.01786378,"LONG":80.17270447},
    {"lan":80.17250484,"lat":"13.01679311","Zone":"12","ward":"157","address":"C.R.R Puram L&T Colony 3rd Street","Motor_Type":"Diesel-10HP","region":"South","LLAT":13.01679311,"LONG":80.17250484},
    {"lan":80.18157893,"lat":"13.01428631","Zone":"12","ward":"157","address":"River View Colony Main Road","Motor_Type":"TRACTOR MOTOR-25HP Diesel ENGINE","region":"South","LLAT":13.01428631,"LONG":80.18157893},
    {"lan":80.18155847,"lat":"13.0142738","Zone":"12","ward":"157","address":"River View Colony Main Road","Motor_Type":"TRACTOR MOTOR-25HP Diesel ENGINE","region":"South","LLAT":13.0142738,"LONG":80.18155847},
    {"lan":80.18154394,"lat":"13.01424313","Zone":"12","ward":"157","address":"River View Colony Main Road","Motor_Type":"TRACTOR MOTOR-25HP Diesel ENGINE","region":"South","LLAT":13.01424313,"LONG":80.18154394},
    {"lan":80.18152745,"lat":"13.01421055","Zone":"12","ward":"157","address":"River View Colony Main Road","Motor_Type":"TRACTOR MOTOR-25HP Diesel ENGINE","region":"South","LLAT":13.01421055,"LONG":80.18152745},
    {"lan":80.18163899,"lat":"13.01326037","Zone":"12","ward":"157","address":"River View Colony Main Road","Motor_Type":"100HP-Diesel Pump","region":"South","LLAT":13.01326037,"LONG":80.18163899},
    {"lan":80.18084456,"lat":"12.98104247","Zone":"12","ward":"166","address":"Poonthottam Main Road","Motor_Type":"Submergeable Motor-5HP","region":"South","LLAT":12.98104247,"LONG":80.18084456},
    {"lan":80.19776867,"lat":"13.02836799","Zone":"12","ward":"158","address":"BURMA COLONY 4TH STREET","Motor_Type":"Motor 1.5hp","region":"South","LLAT":13.02836799,"LONG":80.19776867},
    {"lan":80.20433628,"lat":"12.99020524","Zone":"12","ward":"163","address":"PARAMESWARAN NAGAR 2ND STREET","Motor_Type":"7.5hp","region":"South","LLAT":12.99020524,"LONG":80.20433628},
    {"lan":80.19660509,"lat":"12.98329609","Zone":"12","ward":"163","address":"SURENDHRA NAGAR 11TH STREET","Motor_Type":"7.5hp","region":"South","LLAT":12.98329609,"LONG":80.19660509},
    {"lan":80.18905498,"lat":"12.98193398","Zone":"12","ward":"164","address":"NANGANALLUR 21ST STREET","Motor_Type":"5hp","region":"South","LLAT":12.98193398,"LONG":80.18905498},
    {"lan":80.20693806,"lat":"12.97654007","Zone":"12","ward":"165","address":"SARASWATHY NAGAR EAST 8TH STREET","Motor_Type":"10hp","region":"South","LLAT":12.97654007,"LONG":80.20693806},
    {"lan":80.20204325,"lat":"12.99878565","Zone":"12","ward":"161","address":"Voc Nagar Main Road","Motor_Type":"10hp-Diesel Pump","region":"South","LLAT":12.99878565,"LONG":80.20204325},
    {"lan":80.19565644,"lat":"12.99219412","Zone":"12","ward":"161","address":"WEST KARIKALAN STREET","Motor_Type":"10hp-Diesel Pump","region":"South","LLAT":12.99219412,"LONG":80.19565644},
    {"lan":80.19574526,"lat":"12.99178368","Zone":"12","ward":"161","address":"SANJAI GANDHI NAGAR","Motor_Type":"10hp-Diesel Pump","region":"South","LLAT":12.99178368,"LONG":80.19574526},
    {"lan":80.19693122,"lat":"12.99241866","Zone":"12","ward":"161","address":"MURUGAN STREET","Motor_Type":"10hp-Diesel Pump","region":"South","LLAT":12.99241866,"LONG":80.19693122},
    {"lan":80.18920896,"lat":"12.99570025","Zone":"12","ward":"162","address":"NOBEL 1ST STREET","Motor_Type":"25 hp","region":"South","LLAT":12.99570025,"LONG":80.18920896},
    {"lan":80.19314898,"lat":"12.98873017","Zone":"12","ward":"162","address":"THILLAIGANGA NAGAR 26TH STREET","Motor_Type":"7.5 hp","region":"South","LLAT":12.98873017,"LONG":80.19314898},
    {"lan":80.19295563,"lat":"12.98795439","Zone":"12","ward":"162","address":"THILLAIGANGA NAGAR 28TH STREET","Motor_Type":"7.5 hp","region":"South","LLAT":12.98795439,"LONG":80.19295563},
    {"lan":80.1944246,"lat":"12.99117062","Zone":"12","ward":"162","address":"THILLAIGANGA NAGAR 4TH MAIN ROAD","Motor_Type":"7.5 hp","region":"South","LLAT":12.99117062,"LONG":80.1944246},
    {"lan":80.19543227,"lat":"12.99365433","Zone":"12","ward":"162","address":"THIRUVALLUVAR NAGAR MAIN ROAD","Motor_Type":"10 hp","region":"South","LLAT":12.99365433,"LONG":80.19543227},
    {"lan":80.19422806,"lat":"12.99218654","Zone":"12","ward":"162","address":"THILLAIGANGA NAGAR 3RD STREET","Motor_Type":"7.5 hp","region":"South","LLAT":12.99218654,"LONG":80.19422806},
    {"lan":80.18636555,"lat":"12.98205277","Zone":"12","ward":"167","address":"NANGANALLUR 44TH STREET","Motor_Type":"10hp","region":"South","LLAT":12.98205277,"LONG":80.18636555},
    {"lan":80.18817632,"lat":"12.97587262","Zone":"12","ward":"167","address":"KANNIKA COLONY 1ST STREET","Motor_Type":"10hp","region":"South","LLAT":12.97587262,"LONG":80.18817632},
    {"lan":80.14783374,"lat":"13.01787991","Zone":"12","ward":"156","address":"MRK Nagar Main Road","Motor_Type":"100 HP Diesel Motor Pump","region":"South","LLAT":13.01787991,"LONG":80.14783374},
    {"lan":80.1499243,"lat":"13.01790309","Zone":"12","ward":"156","address":"MADHA NAGAR 15TH STREET","Motor_Type":"100 HP Diesel Motor Pump","region":"South","LLAT":13.01790309,"LONG":80.1499243},
    {"lan":80.1518946,"lat":"13.01818655","Zone":"12","ward":"156","address":"EVP Rajeshwari VND Avenue Kavery Street","Motor_Type":"100 HP Diesel Motor Pump","region":"South","LLAT":13.01818655,"LONG":80.1518946},
    {"lan":80.15186942,"lat":"13.01768804","Zone":"12","ward":"156","address":"EVP Rajeshwari VND Avenue Ganga Street","Motor_Type":"100 HP Diesel Motor Pump","region":"South","LLAT":13.01768804,"LONG":80.15186942},
    {"lan":80.15329336,"lat":"13.01715531","Zone":"12","ward":"156","address":"SINDHU ROAD","Motor_Type":"100 HP Diesel Motor Pump","region":"South","LLAT":13.01715531,"LONG":80.15329336},
    {"lan":80.15249996,"lat":"13.01654935","Zone":"12","ward":"156","address":"MALLAIGAI STREET","Motor_Type":"100 HP Diesel Motor Pump","region":"South","LLAT":13.01654935,"LONG":80.15249996},
    {"lan":80.15516179,"lat":"13.01691137","Zone":"12","ward":"156","address":"MAHALAKSHMI NAGAR 2ND STREET","Motor_Type":"100 HP Diesel Motor Pump","region":"South","LLAT":13.01691137,"LONG":80.15516179},
    {"lan":80.15569473,"lat":"13.01580548","Zone":"12","ward":"156","address":"Alvancheri Mariyamman Kovil Street","Motor_Type":"100 HP Diesel Motor Pump","region":"South","LLAT":13.01580548,"LONG":80.15569473},
    {"lan":80.15677089,"lat":"13.01601403","Zone":"12","ward":"156","address":"Mahalakshmi Nagar Extn Main Road","Motor_Type":"100 HP Diesel Motor Pump","region":"South","LLAT":13.01601403,"LONG":80.15677089},
    {"lan":80.1574471,"lat":"13.01469544","Zone":"12","ward":"156","address":"G.K. Nagar","Motor_Type":"100 HP Diesel Motor Pump","region":"South","LLAT":13.01469544,"LONG":80.1574471},
    {"lan":80.15825253,"lat":"13.01549794","Zone":"12","ward":"156","address":"YAMUNA STREET","Motor_Type":"100 HP Diesal Motor Pump","region":"South","LLAT":13.01549794,"LONG":80.15825253},
    {"lan":80.15998629,"lat":"13.01523836","Zone":"12","ward":"156","address":"BHARATHA MADHA NAGAR","Motor_Type":"100 HP Diesel Motor Pump","region":"South","LLAT":13.01523836,"LONG":80.15998629},
    {"lan":80.16071018,"lat":"13.01568619","Zone":"12","ward":"156","address":"KAVERI STREET","Motor_Type":"100 HP Diesel Motor Pump","region":"South","LLAT":13.01568619,"LONG":80.16071018},
    {"lan":80.16552129,"lat":"13.01659554","Zone":"12","ward":"156","address":"MURUGESANAR STREET","Motor_Type":"100 HP Diesel Motor Pump","region":"South","LLAT":13.01659554,"LONG":80.16552129},
    {"lan":80.16671887,"lat":"13.0174331","Zone":"12","ward":"156","address":"NAVANEETHAM STREET","Motor_Type":"100 HP Diesel Motor Pump","region":"South","LLAT":13.0174331,"LONG":80.16671887},
    {"lan":80.16444983,"lat":"13.01526061","Zone":"12","ward":"156","address":"NAVANEETHAM STREET","Motor_Type":"100 HP Diesel Motor Pump","region":"South","LLAT":13.01526061,"LONG":80.16444983},
    {"lan":80.16567913,"lat":"13.01728107","Zone":"12","ward":"156","address":"MUTHAMMAN STREET","Motor_Type":"100 HP Diesel Motor Pump","region":"South","LLAT":13.01728107,"LONG":80.16567913},
    {"lan":80.20672652,"lat":"13.00502979","Zone":"12","ward":"160","address":"MADAVAPERUMAL NORTH STREET","Motor_Type":"Diesel Pump\n","region":"South","LLAT":13.00502979,"LONG":80.20672652},
    {"lan":80.20742307,"lat":"13.0035115","Zone":"12","ward":"160","address":"SOWRI STREET","Motor_Type":"Diesel Pump\n","region":"South","LLAT":13.0035115,"LONG":80.20742307},
    {"lan":80.20272862,"lat":"13.00173348","Zone":"12","ward":"160","address":"APPAVU STREET","Motor_Type":"Diesel Pump\n","region":"South","LLAT":13.00173348,"LONG":80.20272862},