{"data":[
{"Zone":"1","lat":"13.21727897","lan":"80.32046353","d_id":"604","name":"Z 01 Kathivakkam","address":"Gandhi Nagar, Ennore, Tamil Nadu 600057"},
{"Zone":"1","lat":"13.156320","lan":"80.302049","d_id":"507","name":"Z 01 Tiruvottiyur","address":"Tirumalai Avenue, Rajakadai, Tiruvottiyur, Chennai, Tamil Nadu 600019"},
{"Zone":"2","lat":"13.162454","lan":"80.266285","d_id":"506","name":"Z 02 Manali","address":"1, Kamaraj Salai, Salai Ma Nagar, Manali, Chennai, Tamil Nadu 600068"},
{"Zone":"2","lat":"13.192330","lan":"80.269245","d_id":"560","name":"Z 02 New Manali Town","address":"5/97, Andarkuppam Red Hills Rd, Salaima Nagar, Manali New Town, Manali, Chennai, Tamil Nadu 600103"},
{"Zone":"3","lat":"13.1479635","lan":"80.2298779","d_id":"512","name":"Z 03 Madhavaram","address":"No 20, Swamy Nagar, Madhavaram, Chennai, Tamil Nadu 600060"},
{"Zone":"3","lat":"13.164996","lan":"80.203716","d_id":"561","name":"Z 03 Puzhal","address":"Mahalakshmi Nagar, Puzhal, Chennai, Tamil Nadu 600066"},
{"Zone":"4","lat":"13.120785","lan":"80.286441","d_id":"513","name":"Z 04 Tondiarpet","address":"266, Thiruvottiyur High Rd, Korukkupet, Tondiarpet, Chennai, Tamil Nadu 600021"},
{"Zone":"5","lat":"13.0828215","lan":"80.2710784","d_id":"493","name":"Z 05 Chennai Central","address":"Raja Muthiah Rd, Kannappar Thidal, Poongavanapuram, Chennai, Tamil Nadu 600003"},
{"Zone":"5","lat":"13.104789","lan":"80.274340","d_id":"514","name":"Z 05 Basin Bridge","address":"Regional Deputy Commissioner North Chennai, Basin Bridge, Chidambaram Nagar, Chennai, Tamil Nadu 600001"},
{"Zone":"6","lat":"13.122614","lan":"80.206198","d_id":"562","name":"Z 06 Kolathur","address":"1st Main Rd, Srinivasa Nagar, Kolathur, Chennai, Tamil Nadu 600099"},
{"Zone":"6","lat":"13.112240","lan":"80.231580","d_id":"515","name":"Z 06 Perambur","address":"Kanakkar St, Agaram, Perambur, Chennai, Tamil Nadu 600082"},
{"Zone":"7","lat":"13.106196","lan":"80.152394","d_id":"516","name":"Z 07 Ayapakkam","address":"NH716, Dobhi Colony, Kamarajapuram, Ambattur, Chennai, Tamil Nadu 600053"},
{"Zone":"7","lat":"13.117800","lan":"80.154429","d_id":"563","name":"Z 07 Ambattur","address":"E Park St, Venkatapuram, Ambattur, Chennai, Tamil Nadu 600053"},
{"Zone":"8","lat":"13.076920","lan":"80.225634","d_id":"517","name":"Z 08 Aminjikarai","address":"Jayammal Street, Shenoy Nagar, Chennai, Tamil Nadu 600030"},
{"Zone":"8","lat":"13.098360","lan":"80.198585","d_id":"525","name":"Z 08 Anna Nagar West","address":"19th Main Rd, Anna Nagar West, Chennai, Tamil Nadu 600040"},
{"Zone":"9","lat":"13.0510919","lan":"80.2776172","d_id":"565","name":"Z 09 Ice House","address":"Rama Nagaram, Triplicane, Chennai, Tamil Nadu 600014"},
{"Zone":"9","lat":"13.054976","lan":"80.239308","d_id":"518","name":"Z 09 Nungambakkam","address":"1st St, Nungambakkam, Chennai, Tamil Nadu 600034"},
{"Zone":"10","lat":"13.052016","lan":"80.219700","d_id":"519","name":"Z 10 Vadapalani","address":"SH 113, Kamarajar Colony, Dr.Subbaraya Nagar, Kodambakkam, Chennai, Tamil Nadu 600024"},
{"Zone":"11","lat":"13.052073","lan":"80.1612957","d_id":"564","name":"Z 11 Maduravoyal","address":"Chokkalingam Naicker 5th St, Ganapathi Nagar, Vanagaram, Chennai, Tamil Nadu 600095"},
{"Zone":"11","lat":"13.041038","lan":"80.172204","d_id":"520","name":"Z 11 Valasaravakkam","address":"No:123, Arcot Rd, Bhuvaneshwari Nagar, Valasaravakkam, Chennai, Tamil Nadu 600087"},
{"Zone":"12","lat":"13.0052106","lan":"80.2000065","d_id":"521","name":"Z 12 Alandur","address":"Alandhur Zone 12 Office 254X+3XM, Chakrapani Colony, St.Thomas Mount, Tamil Nadu 600016"},
{"Zone":"12","lat":"12.992103","lan":"80.182188","d_id":"660","name":"Z 12 Meenambakkam","address":"National Airports Authority, Pazavanthangal, Chennai, Tamil Nadu 600016"},
{"Zone":"12","lat":"13.0210566","lan":"80.1670300","d_id":"569","name":"Z 12 Mugalivakkam","address":"Urban Health Care Center hanam Nagar, Kumudam Nagar, Mugalivakkam, Chennai, Tamil Nadu 600116"},
{"Zone":"13","lat":"13.0049632","lan":"80.2548051","d_id":"522","name":"Z 13 Adyar","address":"1st Cross St, Baktavatsalm Nagar, Adyar, Chennai, Tamil Nadu 600020"},
{"Zone":"13","lat":"13.0204833","lan":"80.26355333","d_id":"505","name":"Z 13 Raja Annamalai Puram","address":"Adyar Eco Park Thokkapia Poonga, Raja Annamalai Puram, Chennai 600028"},
{"Zone":"13","lat":"12.9852331","lan":"80.2230378","d_id":"610","name":"Z 13 Velachery","address":"256, Velachery Main Rd, Lakshmi Puram, Velachery, Chennai, Tamil Nadu 600042"},
{"Zone":"14","lat":"12.9722262","lan":"80.1914569","d_id":"523","name":"Z 14 Madipakkam","address":"166, Puzhuthivakkam, Madipakkam, Chennai, Tamil Nadu 600091"},
{"Zone":"14","lat":"12.9658892","lan":"80.2423163","d_id":"611","name":"Z 14 Perungudi","address":"School Rd, Ramappa Nagar, Kandancavadi, Perungudi, Chennai, Tamil Nadu 600096"},
{"Zone":"15","lat":"12.8961684","lan":"80.226852","d_id":"524","name":"Z 15 Sholinganallur","address":"Elcot Ave, Sholinganallur, Chennai, Tamil Nadu 600119"},
{"Zone":"15","lat":"12.8689021","lan":"80.243348","d_id":"566","name":"Z 15 Uthandi","address":"49, Uthandi, Kanathur, Tamil Nadu 600119"}]}
