{"data":[
{"lat":"13.15749734","lan":"80.30128412","ward":"11","Zone":"1","mobile":"9884883403","name":"Dr.R.M.Geetha","desi":"UPHC MEDICAL OFFICER","address":"Thiruvottiyur UPHC , No.945, Thiruvottiyur High Road, Ch 19"},
{"lat":"13.218101","lan":"80.319929","ward":"2","Zone":"1","mobile":"9840180603","name":"Dr.M.Venkatesh","desi":"UPHC MEDICAL OFFICER","address":"Kathivakkam UPHC  No.3/392, Kathivakkam High Road, Ennore, Ch ? 57"},
{"lat":"13.15263878","lan":"80.2950155","ward":"12","Zone":"1","mobile":"8939792080","name":"Dr.R.M.Subhashini","desi":"UPHC MEDICAL OFFICER","address":"Sathangadu UPHC No.9A, Balakrishna Naidu Colony, 2nd Street, Kaladipet, Thiruvottiyur, Ch- 19."},
{"lat":"13.15165749","lan":"80.30222198","ward":"14","Zone":"1","mobile":"6379498040","name":"Dr.Madhavan","desi":"UPHC MEDICAL OFFICER","address":"Thaangal UPHC No.3/2, Poongavanapuram main street, Kaladipet, Chennai - 19"},
{"lat":"13.185883","lan":"80.30581","ward":"4","Zone":"1","mobile":"8122442254","name":"Dr. A.Bhargavi","desi":"UPHC MEDICAL OFFICER","address":"Ernavoor UPHC BNo.63, All Indio Radio nagar, Tsunami quarters, Ernavoor, Chennai - 57"},
{"lat":"13.180226","lan":"80.302348","ward":"4","Zone":"1","mobile":"6379498040","name":"Dr.Madhavan","desi":"UPHC MEDICAL OFFICER","address":"Kuppam UPHC No.1,School Street, Jothi Nagar, Ch 19,"},
{"lat":"13.20620512","lan":"80.2760271","ward":"15","Zone":"2","mobile":"8973203969","name":"Dr. Vaikunth Krishnan","desi":"UPHC MEDICAL OFFICER","address":"Manali New Town UPHC,Govt PHC,Manali new town.Ch-103"},
{"lat":"13.16858417","lan":"80.25790026","ward":"21","Zone":"2","mobile":"8778263416","name":"Dr. Kokilavani","desi":"UPHC MEDICAL OFFICER","address":"Manali UPHC,No.1,Nedunchezhian salai, Manali, Ch-68."},
{"lat":"13.14247638","lan":"80.23231714","ward":"28","Zone":"3","mobile":"7338970084","name":"DR. SABITHA","desi":"UPHC MEDICAL OFFICER","address":"Kannabiran UPHC, Kannabiran Koil st, Madhavaram, Ch-60"},
{"lat":"13.13225386","lan":"80.2118459","ward":"30","Zone":"3","mobile":"9962121019","name":"DR. DIVYA","desi":"UPHC MEDICAL OFFICER","address":"Lakshmipuram UPHC Gangaiamman Koil st, Lakshmipuram, Ch-99"},
{"lat":"13.14804977","lan":"80.23011927","ward":"25","Zone":"3","mobile":"9952198904","name":"DR. ILAMPIRAI","desi":"UPHC MEDICAL OFFICER","address":"Madhavaram UPHC  Swamy Nagar, Madhavaram, Ch-60"},
{"lat":"13.16511646","lan":"80.20385399","ward":"23","Zone":"3","mobile":"9361804304","name":"DR. NANDHINI","desi":"UPHC MEDICAL OFFICER","address":"Puzhal UPHC Gandhi Main Road,Puzhal,Ch-66."},
{"lat":"13.12773075","lan":"80.27995083","ward":"41","Zone":"4","mobile":"9840999969","name":"DR.APARNA","desi":"UPHC MEDICAL OFFICER","address":"Korukkupet UPHC, No.15, Amman Koil St, Sivaji Nagar, Korukkupet,Ch - 21."},
{"lat":"13.1326238","lan":"80.2862728","ward":"40","Zone":"4","mobile":"8838181202","name":"DR.JOTHILAKSHMI","desi":"UPHC MEDICAL OFFICER","address":"V.O.C Nagar (Jeeva Nagar) UPHC, No.1, Chelliamman Koil St, Tondaiyarpet, Ch-81."},
{"lat":"13.13797399","lan":"80.27813029","ward":"38","Zone":"4","mobile":"9710610452","name":"DR. D.JOSEPH MANOAH","desi":"UPHC MEDICAL OFFICER","address":"R.K.Nagar UPHC No.140, Annai Sandhya Nagar, 1st street, Tondaiyarpet, Ch-81."},
{"lat":"13.12472982","lan":"80.26221679","ward":"37","Zone":"4","mobile":"9790866861","name":"DR.HIRANMAYEE","desi":"UPHC MEDICAL OFFICER","address":"Vyasarpadi UPHC No. 155A, 14th Cross st, MKB Nagar, Vyasarpadi, ch - 39,"},
{"lat":"13.1163161","lan":"80.2507737","ward":"44","Zone":"4","mobile":"8754418991","name":"DR.ANUSHA PREETHI","desi":"UPHC MEDICAL OFFICER","address":"Perambur UPHC, No.100, Kamaraj Nagar 2nd St, Vyasarapadi, Ch- 39,"},
{"lat":"13.11299501","lan":"80.28185964","ward":"48","Zone":"4","mobile":"9884247896","name":"DR. KK. KAMALA GAYATHRI","desi":"UPHC MEDICAL OFFICER","address":"V.R. Nagar HP,No.471,T.H. Road,Old Washermenpet, Ch 81"},
{"lat":"13.12278459","lan":"80.28716639","ward":"42","Zone":"4","mobile":"7904115149","name":"DR.MOHANAPRIYA","desi":"UPHC MEDICAL OFFICER","address":"Jeeva Nagar UPHC No.602, T.H.Road, Tondaiyarpet, Ch- 81,"},
{"lat":"13.1111699","lan":"80.27284881","ward":"47","Zone":"4","mobile":"9566146035","name":"DR.A.ZOGARATH KANI","desi":"UPHC MEDICAL OFFICER","address":"Hari Narayanapuram UPHC,No.1,Old glass factory road, Korukkupet,Ch-21."},
{"lat":"13.110744","lan":"80.25959","ward":"45","Zone":"4","mobile":"9840591094","name":"Dr.M.Pavai Nandhini","desi":"UPHC MEDICAL OFFICER","address":"Elango Nagar UPHC, No.18, DR. Ambedkar College Road, Vyasarpadi, Ch-39"},
{"lat":"13.11892835","lan":"80.26607716","ward":"46","Zone":"4","mobile":"8754418991","name":"DR.ANUSHA PREETHI","desi":"UPHC MEDICAL OFFICER","address":"Sathyamoorthy UPHC, No.17,Sathyamoorthy nagar main road,Vyasarpadi, Ch-39"},
{"lat":"13.134929","lan":"80.243622","ward":"35","Zone":"4","mobile":"9884247896","name":"DR. KK. KAMALA GAYATHRI","desi":"UPHC MEDICAL OFFICER","address":"Kodungaiyur I, No.15, Anna Salai, kodungaiyur,   Ch - 118,"},
{"lat":"13.130689","lan":"80.258365","ward":"36","Zone":"4","mobile":"7904115149","name":"DR.MOHANAPRIYA","desi":"UPHC MEDICAL OFFICER","address":"Vivekanandha UPHC (Kodungaiyur II), No.39, Appar st, Vivekananda Nagar, kodungaiyur, Chennai ? 118"},
{"lat":"13.12294474","lan":"80.25166125","ward":"36","Zone":"4","mobile":"9566146035","name":"DR.A.ZOGARATH KANI","desi":"UPHC MEDICAL OFFICER","address":"Sharma Nagar UPHC, No.66,S.A.Colony,8th street,Vyasarpadi, Ch-39, D."},
{"lat":"13.13835401","lan":"80.2970873","ward":"39","Zone":"4","mobile":"9840591094","name":"Dr.M.Pavai Nandhini","desi":"UPHC MEDICAL OFFICER","address":"New washermenpet UPHC, No.4, Cheriyan Nagar 4th st, New Washermenpet, Ch- 81"},
{"lat":"13.12891658","lan":"80.29312073","ward":"43","Zone":"4","mobile":"9003932029","name":"DR.R. J. KEERTHANA","desi":"UPHC MEDICAL OFFICER","address":"Tondaiyarpet UPHC, 52,Kasima Nagar 3rd Street,Chennai-13"},
{"lat":"13.119515","lan":"80.287048","ward":"49","Zone":"5","mobile":"9840771517","name":"Dr. AISHWARYA LAKSHMI","desi":"UPHC MEDICAL OFFICER","address":"Sanjeevarayanpet UPHC, No.194, Solaiappar st, Ch- 21"},
{"lat":"13.11813424","lan":"80.29300487","ward":"49","Zone":"5","mobile":"9344209089","name":"DR.DONCLINTON","desi":"UPHC MEDICAL OFFICER","address":"Grace Garden UPHC, No.152, S.N.Chetty St, Royapuram, Ch-13, (present working at no.1, Venkatesan street,Royapuram, ch-13."},
{"lat":"13.096197","lan":"80.275076","ward":"54","Zone":"5","mobile":"9840162106","name":"DR.A.S.DAMOTHARAN DR.","desi":"UPHC MEDICAL OFFICER","address":"P.K. Garden UPHC, No.44, Walltax Road, Ch-79."},
{"lat":"13.09854846","lan":"80.28139004","ward":"55","Zone":"5","mobile":"8072739646","name":"DR.SARATH KUMAR","desi":"UPHC MEDICAL OFFICER","address":"Seven Wells UPHC, No.69, Amman Koil St, Ch- 1."},
{"lat":"13.09700085","lan":"80.2858957","ward":"55","Zone":"5","mobile":"9080041460","name":"DR.S.JAYAPRIYANKA","desi":"UPHC MEDICAL OFFICER","address":"Amman Koil South UPHC, No.8, Appu Maistry St, Ch- 1,"},
{"lat":"13.10200156","lan":"80.28651506","ward":"56","Zone":"5","mobile":"9791519095","name":"DR.KAVITHA","desi":"UPHC MEDICAL OFFICER","address":"BRN Garden UPHC, No.225, Broadway Road,Ch-1,"},
{"lat":"13.08603231","lan":"80.26298592","ward":"58","Zone":"5","mobile":"9597768158","name":"DR.M.I.FATHIMA MARYAM","desi":"UPHC MEDICAL OFFICER","address":"Kadappa Rangaiyya UPHC, No.50, E.V.K Sampath Salai, Vepary, Chennai - 7,21 KADAPPA RANGIYA STREET PERIYAMEDU CHENNAI-3"},
{"lat":"13.10154901","lan":"80.29371813","ward":"60","Zone":"5","mobile":"8946089592","name":"DR A FATHIMA","desi":"UPHC MEDICAL OFFICER","address":"Harbour UPHC, No.1, 4th Lane Beach Road,    Ch-1,"},
{"lat":"13.07497319","lan":"80.26796964","ward":"62","Zone":"5","mobile":"9962822788","name":"DR. CHAITANYA","desi":"UPHC MEDICAL OFFICER","address":"Chinthathirpet UPHC, No.10,Nainiappan St, Chinthathirpet, Ch - 2"},
{"lat":"13.07125","lan":"80.267924","ward":"63","Zone":"5","mobile":"9578278474","name":"DR .G VENKATESH","desi":"UPHC MEDICAL OFFICER","address":"Pudupet UPHC, No.22, Langs Garden St, Pudupet,Ch - 2,HP"},
{"lat":"13.110283","lan":"80.28308055","ward":"51","Zone":"5","mobile":"9094001236","name":"DR.S.P.ASHWINKRISHNA","desi":"UPHC MEDICAL OFFICER","address":"ECR UPHC, No.32, East Cementry Road,  Ch- 21"},
{"lat":"13.10427688","lan":"80.27444769","ward":"53","Zone":"5","mobile":"9940317261","name":"Dr.JEBAKANI CHRISTELLA","desi":"UPHC MEDICAL OFFICER","address":"Kondithope UPHC, No.60, Basin Bridge Road, Kondithope,Ch-21."},
{"lat":"13.121095","lan":"80.23372359","ward":"67","Zone":"6","mobile":"7338842275","name":"DR YAZHINI","desi":"UPHC MEDICAL OFFICER","address":"TVK Nagar UPHC, Pallavan salai, Ch"},
{"lat":"13.11400661","lan":"80.23542209","ward":"67","Zone":"6","mobile":"8122692690","name":"DR DEEPAK","desi":"UPHC MEDICAL OFFICER","address":"Sembuim UPHC, No.238,Papermills Road,Sembium,Ch- 11"},
{"lat":"13.10100095","lan":"80.23837624","ward":"70","Zone":"6","mobile":"9600035154","name":"DR SHEEBA","desi":"UPHC MEDICAL OFFICER","address":"N.N.Nagar UPHC, No.43, Vasantha Garden Main Road, Ayanavaram, Chennai - 23."},
{"lat":"13.12054273","lan":"80.24352985","ward":"70","Zone":"6","mobile":"9600136441","name":"DR VIJAYAKUMAR","desi":"UPHC MEDICAL OFFICER","address":"Siruvallur UPHC, No.12, Kabilar St,Perambur, Ch-11,HP"},
{"lat":"13.10480362","lan":"80.25287983","ward":"71","Zone":"6","mobile":"9159280317","name":"DR ARUN JAMES","desi":"UPHC MEDICAL OFFICER","address":"Wadia Nagar UPHC, No.57, Cooks Road, Otteri, Ch- 12,HP"},
{"lat":"13.09515476","lan":"80.26755878","ward":"77","Zone":"6","mobile":"8939115304","name":"DR SATHISH","desi":"UPHC MEDICAL OFFICER","address":"K.P.Park UPHC,Demellows road, Pulianthope, Ch-112."},
{"lat":"13.10917629","lan":"80.23130974","ward":"69","Zone":"6","mobile":"9444249778","name":"DR AARTHI","desi":"UPHC MEDICAL OFFICER","address":"Agaram (S) UPHC, No.9, Somaiya St, Agaram, Ch-82,HP"},
{"lat":"13.08858783","lan":"80.25680233","ward":"78","Zone":"6","mobile":"7397229408","name":"DR ANUSHA","desi":"UPHC MEDICAL OFFICER","address":"Perumalpet UPHC,No.30,Kariappan St,Ch-7"},
{"lat":"13.09436812","lan":"80.25722794","ward":"78","Zone":"6","mobile":"9445539682","name":"DR KARIKALAN","desi":"UPHC MEDICAL OFFICER","address":"C S Nagar UPHC, No.1, Satchithanadam St, Kosapet,  Ch ? 12"},
{"lat":"13.091055","lan":"80.265763","ward":"78","Zone":"6","mobile":"9962910600","name":"DR DEVIKALA","desi":"UPHC MEDICAL OFFICER","address":"Choolai UPHC, No.23, V.V. Koil St, Choolai, Ch ? 112,HP"},
{"lat":"13.09277648","lan":"80.25335429","ward":"76","Zone":"6","mobile":"9710000013","name":"DR VICTOR SOLOMON","desi":"UPHC MEDICAL OFFICER","address":"Chellappa Street  UPHC,  Otteri, Ch-12"},
{"lat":"13.11908","lan":"80.206471","ward":"64","Zone":"6","mobile":"7397229408","name":"DR ANUSHA","desi":"UPHC MEDICAL OFFICER","address":"Anjugam nagar 3rd street kolathur, Ch-99"},
{"lat":"13.12010574","lan":"80.20537713","ward":"64","Zone":"6","mobile":"9445539682","name":"DR KARIKALAN","desi":"UPHC MEDICAL OFFICER","address":"Kolathur UPHC, Srivinasa Nagar 3rd Main Road, Kolathur, Ch- 99,HP"},
{"lat":"13.09596481","lan":"80.24513147","ward":"75","Zone":"6","mobile":"9962910600","name":"DR DEVIKALA","desi":"UPHC MEDICAL OFFICER","address":"MMA Nagar UPHC, No.46, Subbuaraya 2nd St, Nammalvarpet, Ch - 12,HP"},
{"lat":"13.10085661","lan":"80.26062737","ward":"73","Zone":"6","mobile":"9710000013","name":"DR VICTOR SOLOMON","desi":"UPHC MEDICAL OFFICER","address":"Pulianthope UPHC,40,Thiruvengadasamy street, Pulianthope, Ch-012."},
{"lat":"13.1297302","lan":"80.15366894","ward":"79","Zone":"7","mobile":"9962655279","name":"DR SARUNYA","desi":"UPHC MEDICAL OFFICER","address":"Oragadam HP, No, 26, Gandhi High Road, Oragadam, Ambattur, Ch ? 53"},
{"lat":"13.12335824","lan":"80.16014158","ward":"80","Zone":"7","mobile":"7010507761","name":"DR.KARTHIKEYAN","desi":"UPHC MEDICAL OFFICER","address":"Meenabedu UPHC, No 1 KVK Samy street,Siddha oragadam, Ambattur   Ch-53"},
{"lat":"13.11766987","lan":"80.15362978","ward":"81","Zone":"7","mobile":"9677296323","name":"DR. SHAHITHA","desi":"UPHC MEDICAL OFFICER","address":"Venkatapuram HP, South park Street,Ch-53"},
{"lat":"13.10972264","lan":"80.18258226","ward":"84","Zone":"7","mobile":"8122734634","name":"Dr Gayathri","desi":"UPHC MEDICAL OFFICER","address":"Korattur HP, No. 32, TNHB Street,32nd, Pakthavatchalam School Back Side, Korattur Ambattur, Chennai-50"},
{"lat":"13.112624","lan":"80.1535","ward":"85","Zone":"7","mobile":"9952929305","name":"DR.RAMYA","desi":"UPHC MEDICAL OFFICER","address":"Varadharajapuram  UPHC I, No.3, Station Road, Varadharajapuram, Ambattur,Ch-53."},
{"lat":"13.091369","lan":"80.159243","ward":"86","Zone":"7","mobile":"9597021009","name":"DR.S. ASHVITHA","desi":"UPHC MEDICAL OFFICER","address":"Athipet UPHC , Chinna Colony, Athipet,Ambattur, Ch- 53."},
{"lat":"13.082449","lan":"80.186072","ward":"93","Zone":"7","mobile":"8220678825","name":"DR MITHUNA","desi":"UPHC MEDICAL OFFICER","address":"Mugappair (E) UPHC, Veeramamunivar Street, Mugappair (E), Ch -37"},
{"lat":"13.08956222","lan":"80.18986817","ward":"89","Zone":"7","mobile":"944495443","name":"DR.NIVETHA","desi":"UPHC MEDICAL OFFICER","address":"Padi Round Building UPHC ,  TVS Avenue main Road,Near chennai public school, Chennai-101"},
{"lat":"13.08440014","lan":"80.16951823","ward":"91","Zone":"7","mobile":"944495443","name":"DR.NIVETHA","desi":"UPHC MEDICAL OFFICER","address":"Mugappair (W) UPHC, Kalamegam Salai,Mugappair W,Ch- 37"},
{"lat":"13.07319158","lan":"80.24294387","ward":"108","Zone":"8","mobile":"9445194833","name":"DR.VENNILA SELVI","desi":"UPHC MEDICAL OFFICER","address":"Chetpet UPHC, 1, Jagannathapuram 2nd St, Chetpet, Ch-31."},
{"lat":"13.07308637","lan":"80.24526717","ward":"108","Zone":"8","mobile":"9894934699","name":"DR.ABIRAMI","desi":"UPHC MEDICAL OFFICER","address":"Mangalapuram UPHC, 8, 8th st, Mangalapuram, Chetpet,Ch-31."},
{"lat":"13.06840995","lan":"80.2199318","ward":"107","Zone":"8","mobile":"9940304974","name":"DR. SHALINI","desi":"UPHC MEDICAL OFFICER","address":"Aminjikarai East Collectrate colony,6th cross street, Aminjikarai,Ch-29,HP"},
{"lat":"13.06655601","lan":"80.21367577","ward":"105","Zone":"8","mobile":"9840703383","name":"DR. HARIPRIYA","desi":"UPHC MEDICAL OFFICER","address":"MMDA, 21/63,D Block,Pandian St, MMDA Colony, Ch-106"},
{"lat":"13.087774","lan":"80.252406","ward":"99","Zone":"8","mobile":"9600062428","name":"DR. VIJEE","desi":"UPHC MEDICAL OFFICER","address":"Purusaiwakkam, near sundaram pillai school"},
{"lat":"13.08541267","lan":"80.23975797","ward":"98","Zone":"8","mobile":"9944366773","name":"DR . CHANDRAVATHANA","desi":"UPHC MEDICAL OFFICER","address":"P.S.Nagar,100, Aspirin garden,Ist Street, Kilpauk, Ch-10"},
{"lat":"13.08059761","lan":"80.23452476","ward":"100","Zone":"8","mobile":"9282340515","name":"DR. G.NIRUPA","desi":"UPHC MEDICAL OFFICER","address":"Kilpauk HP Temple st,New Avadi road,Kilpauk,Ch-10."},
{"lat":"13.07656268","lan":"80.22480584","ward":"101","Zone":"8","mobile":"9677185656","name":"DR. SINDHU","desi":"UPHC MEDICAL OFFICER","address":"Shenoy Nagar HP 43, Pulla Avenue,Shenoy Nagar,Ch-30,HP."},
{"lat":"13.10072753","lan":"80.2307182","ward":"96","Zone":"8","mobile":"9841060599","name":"DR. RANIPANDIAN","desi":"UPHC MEDICAL OFFICER","address":"N.A.(S) UPHC, 1,Officers colony (near post office) Ayanavaram,  Ch-23,HP."},
{"lat":"13.098274","lan":"80.230491","ward":"96","Zone":"8","mobile":"9486871811","name":"DR ARUN","desi":"UPHC MEDICAL OFFICER","address":"Ayanavaram UPHC, Chennai Primary School,Solai Street,Ayanavaram, Ch."},
{"lat":"13.07908171","lan":"80.22055463","ward":"102","Zone":"8","mobile":"9444426491","name":"DR. CHANDRASEKAR","desi":"UPHC MEDICAL OFFICER","address":"Bharathi Puram, UPHC,4th st,Shenoy Nagar,   Ch-30, D"},
{"lat":"13.09996684","lan":"80.20119613","ward":"95","Zone":"8","mobile":"8300180680","name":"DR. MARY STELLA","desi":"UPHC MEDICAL OFFICER","address":"Agathiar nagar UPHC, No.1, 1st main road, agathiar Nagar , Villivakkam, Venugopal st,Ch-49."},
{"lat":"13.10826226","lan":"80.21151354","ward":"95","Zone":"8","mobile":"8825785121","name":"DR.RAGINI","desi":"UPHC MEDICAL OFFICER","address":"Villiwakkam UPHC, Mannady st, Villiwakkam, (Near.Bus Depo),east mada street, Ch-49."},
{"lat":"13.07823732","lan":"80.21215196","ward":"103","Zone":"8","mobile":"9840122201","name":"DR.RAGHUNATHAN","desi":"UPHC MEDICAL OFFICER","address":"Aminjikarai West 1, Pillaiyar koil st, Naduvankarai, Ch-40"},
{"lat":"13.113404","lan":"80.205321","ward":"94","Zone":"8","mobile":"8220123232","name":"DR.Priyanka","desi":"UPHC MEDICAL OFFICER","address":"Raja mangalam UPHC, No:36, Raja Mangalam, Ch-49,RD"},
{"lat":"13.0257856","lan":"80.2611888","ward":"126","Zone":"9","mobile":"9344427603","name":"DR.VIDYA","desi":"UPHC MEDICAL OFFICER","address":"R A Puram UPHC, 17,R.K.Nagar II Main road road, R.A.Puram, Ch-28.HP"},
{"lat":"13.029423","lan":"80.276183","ward":"125","Zone":"9","mobile":"8903703937","name":"DR.LAKSHMI","desi":"UPHC MEDICAL OFFICER","address":"Santhome UPHC, 14,A,Appu II Lane, Mylapore, Chennai-4.HP"},
{"lat":"13.05507","lan":"80.260261","ward":"115","Zone":"9","mobile":"8668029323","name":"DR DEV CHANDRU","desi":"UPHC MEDICAL OFFICER","address":"Zam bazar UPHC,Corporation middle school  32,Thangavelu vaithair st, Subramania garden, Devarajamudali st, Triplicane, Ch5."},
{"lat":"13.063605","lan":"80.2762","ward":"114","Zone":"9","mobile":"9894152490","name":"DR.SULAKCHANA","desi":"UPHC MEDICAL OFFICER","address":"Community Nursing college,34,Arunachalam st,Chepak, Ch."},
{"lat":"13.0364315","lan":"80.2710003","ward":"124","Zone":"9","mobile":"8270739209","name":"DR. RAJALAKSHMI","desi":"UPHC MEDICAL OFFICER","address":"Mylapore UPHC,22,Mundakanniaman Koil st Mylapore,  Ch-4."},
{"lat":"13.04921273","lan":"80.23551841","ward":"113","Zone":"9","mobile":"8270739209","name":"DR.GANGA UDAYA LAKSHMI","desi":"UPHC MEDICAL OFFICER","address":"S.M.Nagar UPHC, Dispensary  Ramakamathupuram kalayana Mandapam, T-nagar Chennai-17."},
{"lat":"13.0355026","lan":"80.2503392","ward":"123","Zone":"9","mobile":"7339291808","name":"DR.MIRNALINI","desi":"UPHC MEDICAL OFFICER","address":"Teynampet UPHC, 40,K.B.Dasan raod, Teynampet, Ch-18, HP"},
{"lat":"13.0345762","lan":"80.2570742","ward":"123","Zone":"9","mobile":"9790787748","name":"DR.MURALIKANTH","desi":"UPHC MEDICAL OFFICER","address":"Beemanampet UPHC, Multy speciality,29 ,C P Ramasamy road Alwar pet,Ch-1"},
{"lat":"13.0580068","lan":"80.2235198","ward":"112","Zone":"9","mobile":"9445500909","name":"DR.MOHAMMAD  RIZWAN","desi":"UPHC MEDICAL OFFICER","address":"Vadapalani East UPHC, 1/3, Trustpuram xth street kodampakkam Ch-2"},
{"lat":"13.04611716","lan":"80.27625731","ward":"121","Zone":"9","mobile":"9444255679","name":"DR VIJAYA","desi":"UPHC MEDICAL OFFICER","address":"Krishnampet UPHC, 1,Meccapuram,main street, Ch-5.HP"},
{"lat":"13.05121796","lan":"80.27780355","ward":"120","Zone":"9","mobile":"9841673044","name":"DR.MALAR","desi":"UPHC MEDICAL OFFICER","address":"Triplicane UPHC,3 Dr.Besant road, Triplicane, Chennai -5.D"},
{"lat":"13.05060752","lan":"80.27311316","ward":"120","Zone":"9","mobile":"9499933107","name":"DR.MANISH","desi":"UPHC MEDICAL OFFICER","address":"Mirsahibpet UPHC,5 Muthaiah mudali main st,Chennai-14.D"},
{"lat":"13.063667","lan":"80.229","ward":"109","Zone":"9","mobile":"9444144026","name":"DR.S.MEENAKSHI","desi":"UPHC MEDICAL OFFICER","address":"Periyar nagar UPHC, 47/17,Sherfudeen st, Choolaimedu, Ch-94.HP (NCD)"},
{"lat":"13.051291","lan":"80.262252","ward":"118","Zone":"9","mobile":"9444466470","name":"DR.JAYANTHI","desi":"UPHC MEDICAL OFFICER","address":"Royapettah UPHC,35 Ammaiappan lane,Royapettah, Ch-14. D"},
{"lat":"13.05548178","lan":"80.25241889","ward":"111","Zone":"9","mobile":"9444466470","name":"DR.JAYANTHI","desi":"UPHC MEDICAL OFFICER","address":"Thousand light UPHC, 82, Azizmulk 2 street, Thousand light,Ch-06.HP"},
{"lat":"13.0578174","lan":"80.2392416","ward":"110","Zone":"9","mobile":"9444466470","name":"DR.JAYANTHI","desi":"UPHC MEDICAL OFFICER","address":"Pushpa nagar UPHC, Pushpa nagar I main road, Nungampakkam,Ch-34.HP"},
{"lat":"13.05375556","lan":"80.20925218","ward":"130","Zone":"10","mobile":"9380673151","name":"Dr.V.C.Swarna Saravanan","desi":"UPHC MEDICAL OFFICER","address":"Vadapalani (W) UPHC,No. 1, Rajangam Mathyaveethi, Vadapalani, Ch-26"},
{"lat":"13.04404466","lan":"80.20230241","ward":"136","Zone":"10","mobile":"9444538964","name":"DR. KIRUTHIGAA","desi":"UPHC MEDICAL OFFICER","address":"Saligramam UPHC, 5th street, Vijayaraghavapuram, Chennai-93."},
{"lat":"13.03225497","lan":"80.21721684","ward":"131","Zone":"10","mobile":"9444480553","name":"Dr. J. Mumtaj","desi":"UPHC MEDICAL OFFICER","address":"Nallan Kuppam  UPHC, 62nd street, Ashoknagar, Ch-83"},
{"lat":"13.05118495","lan":"80.21900404","ward":"132","Zone":"10","mobile":"9840742442","name":"Dr Jasmine Fathima","desi":"UPHC MEDICAL OFFICER","address":"Kodambakkam UPHC,Corporation Colony, Kodambakkam, Ch-24"},
{"lat":"13.05658681","lan":"80.20380181","ward":"129","Zone":"10","mobile":"9282110921","name":"Dr Sugiitharaj samuel","desi":"UPHC MEDICAL OFFICER","address":"Dasarathapuram UPHC, No. 10/11, Dhasaradha Puram 8th ST, Dasarathapuram Ch-93"},
{"lat":"13.03188859","lan":"80.2022651","ward":"138","Zone":"10","mobile":"9326841389","name":"Dr Shanmuga Mayuri","desi":"UPHC MEDICAL OFFICER","address":"Jafferkhanpet  UPHC,no.1, Ayyavu 4th street, Jafferkhanpet,Ch-83."},
{"lat":"13.05285507","lan":"80.19690006","ward":"128","Zone":"10","mobile":"9840403046","name":"Dr .R.POONGUZHALI","desi":"UPHC MEDICAL OFFICER","address":"Virugambakkam UPHC, No.77,Kamarajar street,Division Office, Virugambakkam"},
{"lat":"13.03165837","lan":"80.1912859","ward":"137","Zone":"10","mobile":"9444694683","name":"Dr Selvi ganesan","desi":"UPHC MEDICAL OFFICER","address":"Nesapakkam  UPHC, No. 1 Erikarai Street, Nesapakkam, Ch-78"},
{"lat":"13.05901046","lan":"80.19293597","ward":"127","Zone":"10","mobile":"9176092789","name":"DR T. S. SUBHALAKSHMI","desi":"UPHC MEDICAL OFFICER","address":"Koyambedu UPHC, No. 44, Natesa Nagar, 5th Main Road, Virugambakkam"},
{"lat":"13.039316","lan":"80.235775","ward":"133","Zone":"10","mobile":"9500077632","name":"DR.SOWBAGYALAKSHMI","desi":"UPHC MEDICAL OFFICER","address":"T.Nagar  UPHC,Corporation Hospital, 5, Siva Gnanam Street, T.Nagar,  Ch-17"},
{"lat":"13.02939241","lan":"80.23392706","ward":"141","Zone":"10","mobile":"9943992112","name":"Dr.G.MOHAN BABU","desi":"UPHC MEDICAL OFFICER","address":"C.I.T  Nagar UPHC, No. 54, 4th Main Road, C.I.T. Nagar, Ch-35"},
{"lat":"13.02505201","lan":"80.21950172","ward":"142","Zone":"10","mobile":"9444782848","name":"Dr Priyanka","desi":"UPHC MEDICAL OFFICER","address":"Saidapet UPHC,51,Jones  Road, Saidapet, Ch-15"},
{"lat":"13.027736","lan":"80.215894","ward":"139","Zone":"10","mobile":"8637610400","name":"Dr. Ganga","desi":"UPHC MEDICAL OFFICER","address":"Saidapet West UPHC, No. 2nd Link Street, R.R. Colony Jafferkanpet, Ch-83"},
{"lat":"13.03104262","lan":"80.22416811","ward":"140","Zone":"10","mobile":"8637610400","name":"Dr. Ganga","desi":"UPHC MEDICAL OFFICER","address":"Kumaran Nagar UPHC,No. 1 Govindan Road, West Mambalam, Ch-33"},
{"lat":"13.04111623","lan":"80.21456326","ward":"135","Zone":"10","mobile":"9500077632","name":"DR.SOWBAGYALAKSHMI","desi":"UPHC MEDICAL OFFICER","address":"Ashok Nagar UPHC, 34, 35th street, Ashok Nagar, Ch-83"},
{"lat":"13.055512","lan":"80.184072","ward":"148","Zone":"11","mobile":"9444917952","name":"DR.DHEVA LAKSHMI","desi":"UPHC MEDICAL OFFICER","address":"Kamarajar Salai,Nerkundaram,Ch"},
{"lat":"13.06919292","lan":"80.18641504","ward":"145","Zone":"11","mobile":"9176577964","name":"DR.VENNILA","desi":"UPHC MEDICAL OFFICER","address":"Nerkundram UPHC New colony Perumal koil street, Nerkundram, Ch-107"},
{"lat":"13.035022","lan":"80.173908","ward":"154","Zone":"11","mobile":"9385810030","name":"DR.ARULARASAN","desi":"UPHC MEDICAL OFFICER","address":"Ramapuram, Unit Office 154, Kambar Salai, Ramapuram"},
{"lat":"13.06311106","lan":"80.16647674","ward":"144","Zone":"11","mobile":"9585307186","name":"DR.SRINIVASAN","desi":"UPHC MEDICAL OFFICER","address":"Maduravoyal UPHC(Unit office 32 Poonamalle high road),   Ch-95"},
{"lat":"13.030794","lan":"80.164171","ward":"153","Zone":"11","mobile":"7904668104","name":"DR.SHRI DEVI","desi":"UPHC MEDICAL OFFICER","address":"Unit Office,Sakthi Nagar,Porur"},
{"lat":"12.99415743","lan":"80.20359601","ward":"163","Zone":"12","mobile":"9444403399","name":"DR. B SHANTHI","desi":"UPHC MEDICAL OFFICER","address":"Adambakkam,1 UPHC,Mannadiamman koil street, Adambakkam,Ch-88"},
{"lat":"12.987892","lan":"80.18953","ward":"164","Zone":"12","mobile":"8626986678","name":"DR. FARHANA FATIMA","desi":"UPHC MEDICAL OFFICER","address":"Pazhavanthangal UPHC,2,new colony,II cross st,Pazhavanthangal,Ch-114."},
{"lat":"12.974467","lan":"80.181604","ward":"166","Zone":"12","mobile":"9840873220","name":"DR. U KALAIVANI","desi":"UPHC MEDICAL OFFICER","address":"Nanganallur UPHC,K.K.Nagar main road,Ch-114"},
{"lat":"13.02122904","lan":"80.16698055","ward":"156","Zone":"12","mobile":"9444940004","name":"DR. RIZWANA BEGUM - IC","desi":"UPHC MEDICAL OFFICER","address":"Mugalivakkam UPHC PHC,opp to Panchayat office,Mugalivakkam, Ch-125."},
{"lat":"13.00174496","lan":"80.2030566","ward":"160","Zone":"12","mobile":"8489646684","name":"DR. SYED MOHAMED ASHRAF","desi":"UPHC MEDICAL OFFICER","address":"Alandur UPHC, No.12,Appavoo street, Alandur, Chennai-16"},
{"lat":"13.017859","lan":"80.20578","ward":"168","Zone":"13","mobile":"9445298697","name":"DR.KARPAGAVALLI","desi":"UPHC MEDICAL OFFICER","address":"Ekatuthangal UPHC, AG's Church next New Building Ekkattuthangal (D), Anna salai Saidapet, Ch-75."},
{"lat":"13.02995023","lan":"80.2261539","ward":"169","Zone":"13","mobile":"88754431215","name":"DR SHINY JASMINE","desi":"UPHC MEDICAL OFFICER","address":"Kanammapet UPHC,No.1,Hospital road,Kanammapet,ch17.HP"},
{"lat":"13.0229947","lan":"80.2402407","ward":"170","Zone":"13","mobile":"9789821221","name":"DR.SOWBARNIKA","desi":"UPHC MEDICAL OFFICER","address":"Kotturpuram UPHC,12/23 Dhandayuthapani 2nd st Kotturpuram, Ch-85."},
{"lat":"13.02395011","lan":"80.26484203","ward":"171","Zone":"13","mobile":"8939102040","name":"DR KRISHNAVENI","desi":"UPHC MEDICAL OFFICER","address":"Mandaveli UPHC,No.10, Velayutham Raja st (D), Mandaveli, Ch-28."},
{"lat":"13.001099","lan":"80.26359","ward":"174","Zone":"13","mobile":"7708248430","name":"DR.AMOSH","desi":"UPHC MEDICAL OFFICER","address":"Adyar UPHC, Vannandurai road,Besent Nagar near Besant nagar bus stand,Ch-90."},
{"lat":"12.98296411","lan":"80.23674913","ward":"178","Zone":"13","mobile":"9940064243","name":"DR SAMYUKTHA","desi":"UPHC MEDICAL OFFICER","address":"SRKV UPHC, N0.2,Thiruvalluvar salai, Tharamani,Ch-113.D"},
{"lat":"12.99941082","lan":"80.21437186","ward":"172","Zone":"13","mobile":"9003057031","name":"DR NEEVEDETHA.R","desi":"UPHC MEDICAL OFFICER","address":"Old Siddha Clinic next to maduvankarai school 5 furlong road, Maduvankarai,Ch-32."},
{"lat":"12.9863037","lan":"80.229941","ward":"177","Zone":"13","mobile":"994009744","name":"DR SOFIYA","desi":"UPHC MEDICAL OFFICER","address":"Velachery UPHC, No.2 Seva nagar, Gandhi road,Velachery,ch-42.HP"},
{"lat":"12.99155134","lan":"80.21206924","ward":"175","Zone":"13","mobile":"9942171315","name":"DR USHA DEVI","desi":"UPHC MEDICAL OFFICER","address":"Adambakkam UPHC, 153, TNHB 3rd st, Adambakkam, Ch, D."},
{"lat":"12.98908975","lan":"80.20524486","ward":"175","Zone":"13","mobile":"9442585799","name":"DR.MAHESHWARAN","desi":"UPHC MEDICAL OFFICER","address":"Sastri nagar UPHC,4 Sasthiri nagar,4th st Adampakkam ch-88.D"},
{"lat":"12.98483459","lan":"80.25712955","ward":"180","Zone":"13","mobile":"86818302842","name":"DR NITHIYA","desi":"UPHC MEDICAL OFFICER","address":"Thiruvanmiyur UPHC,No 2,8th st,Kamaraj nagar, Thiruvanmiyur,   Ch-41,D"},
{"lat":"12.97133367","lan":"80.20059822","ward":"186","Zone":"14","mobile":"8754539993","name":"DR.Rohini Deepa","desi":"UPHC MEDICAL OFFICER","address":"Puzhuthivakkam UPHC,No.3.Raghavan street,Puzhuthivakkam, Ch-91"},
{"lat":"12.96457313","lan":"80.25352403","ward":"183","Zone":"14","mobile":"8144282512","name":"Dr.Dharanilatha","desi":"UPHC MEDICAL OFFICER","address":"Palavakkam UPHC,East coast road, Palavakkam, Ch-41"},
{"lat":"12.933155","lan":"80.204132","ward":"189","Zone":"14","mobile":"8678935655","name":"DR.Shalu Priya","desi":"UPHC MEDICAL OFFICER","address":"Pallikaranai UPHC, Ch-100."},
{"lat":"12.912397","lan":"80.196558","ward":"191","Zone":"14","mobile":"8754544989","name":"Dr.Nithya Keerthana","desi":"UPHC MEDICAL OFFICER","address":"Jalladayanpet UPHC, No.6, Thiruvalluvar street, Jalladayanpet, Ch-101"},
{"lat":"12.963201","lan":"80.198423","ward":"188","Zone":"14","mobile":"8754544989","name":"Dr.Nithya Keerthana","desi":"UPHC MEDICAL OFFICER","address":"Madipakkam UPHC , Division Office Madipakkam Bus stand,Ch-91"},
{"lat":"12.948711","lan":"80.240929","ward":"193","Zone":"15","mobile":"9943174682","name":"DR RAJESH","desi":"UPHC MEDICAL OFFICER","address":"Thoraipakkam UPHC, Govt PHC, Rajiv gandhi salai,panchayat office campus, Okkiyam Thoraipakkam, Ch-97."},
{"lat":"12.89214326","lan":"80.22843906","ward":"199","Zone":"15","mobile":"7639849355","name":"DR SHEAKEZHAAR","desi":"UPHC MEDICAL OFFICER","address":"Nedunchezian Salai,OMR"},
{"lat":"12.94986263","lan":"80.25590549","ward":"192","Zone":"15","mobile":"9943174682","name":"DR RAJESH","desi":"UPHC MEDICAL OFFICER","address":"Neelangarai UPHC, 5, Kalaingar Karunanithi Main st, Kabaliswar Nagar, Neelangarai,  Ch-115."},
{"lat":"12.8752287","lan":"80.21048827","ward":"200","Zone":"15","mobile":"7639849355","name":"DR SHEAKEZHAAR","desi":"UPHC MEDICAL OFFICER","address":"Semmanchery PHC,1ST Main road,opp toTsunami nagar,  bus stop, Ch-119"},
{"lat":"12.93099982","lan":"80.23863589","ward":"196","Zone":"15","mobile":"9943174682","name":"DR RAJESH","desi":"UPHC MEDICAL OFFICER","address":"Kannagi nagar UPHC near Kannagi nagar Amma unavagam Kannakinagar,  2nd main road, okkiyam thoraipakkam, Ch-97"}
]}
